id,place,lat,lon
1,"Rioja,Spain",42.3285528,-2.4674917
2,"Barolo,Italy",44.6108408,7.9428448
3,"Central+Coast,US",-33.3117096,151.3120675
4,"Piedmont,Italy",33.547545,-86.902243
5,"Lontue+Valley,Chile",-35.0549065,-71.2745634
6,"Monreale,Italy",38.0801239,13.2887208
7,"Macon-Aze,France",46.4321441,4.7602062
8,"Central+Coast,US",-33.3117096,151.3120675
9,"Burgundy,France",47.27808725,4.222486304
10,"Diano+d'Alba,Italy",44.6503104,8.0275084
11,"Napareuli,Georgia",41.9250208,45.4616866
12,"Strathbogie+Ranges,Australia",-37.8056262,145.3319978
13,"Central+Coast,US",-33.3117096,151.3120675
14,"Willamette+Valley,US",45.3442868,-122.6670374
15,"Saint-Peray,France",44.9454417,4.8430943
16,"Central+Coast,US",-33.3117096,151.3120675
17,"Walker+Bay,South+Africa",-34.5563889,19.3416667
18,"Sonoma,US",38.5110803,-122.8473388
19,"Sangiovese+di+Toscana,Italy",0,0
20,"Paardeberg,South+Africa",-28.9737214,25.0862166
21,"Coteaux+du+Lyonnais,France",45.6782926,4.6890095
22,"Egilias+Slopes,Greece",0,0
23,"Cotes+du+Roussillon+Villages+Caramany,France",0,0
24,"Valencia,Spain",39.4699014,-0.3759513
25,"South+Coast,US",32.7469891,-117.2516124
26,"Kumeu,New+Zealand",-36.7746685,174.5548889
27,"Santenay,France",46.9115071,4.6996302
28,"Central+Coast,US",-33.3117096,151.3120675
29,"Murray-Darling,Australia",-33.8888719,151.190283
30,"California+Other,US",39.3565832,-120.1821578
31,"Offida+Passerina,Italy",0,0
32,"Circeo,Italy",41.232602,13.0891737
33,"Lake+County,US",42.3327033,-87.9939552
34,"Mendocino/Lake+Counties,US",0,0
35,"Retsina,Greece",37.9517536,23.6477047
36,"Gutturnio+Colli+Piacentini,Italy",0,0
37,"Dolcetto+di+Diano+d'Alba,Italy",0,0
38,"Tumbarumba,Australia",-35.7764898,148.010062
39,"Pays+d'Oc,France",43.604764,1.4540399
40,"Muscat+of+Kefallonian,Greece",0,0
41,"South+Coast,US",32.7469891,-117.2516124
42,"Bardolino+Classico+Superiore,Italy",0,0
43,"Valdeorras,Spain",42.4161908,-6.983967
44,"Itata+Valley,Chile",-36.5576104,-72.6022911
45,"Vin+de+Liqueur,France",0,0
46,"McLaren+Vale-Adelaide+Hills,Australia",0,0
47,"Sannio,Italy",41.0693267,14.8524578
48,"Clear+Lake,US",44.7595585,-96.68264444
49,"Uruguay,Uruguay",-32.8755548,-56.0201525
50,"Boca,Italy",45.678969,8.408726
51,"Bramaterra,Italy",45.6312734,8.3012197
52,"Rose+de+Loire,France",47.1947627,2.3785761
53,"Lambrusco+Salamino+di+Santa+Croce,Italy",0,0
54,"Krk,Croatia",45.09019545,14.54966811
55,"Morellino+di+Scansano,Italy",42.71255365,11.2280516
56,"Napa,US",38.2971367,-122.2855293
57,"Coteaux+d'Aix-en-Provence,France",0,0
58,"Corbieres,France",48.421579,4.0481776
59,"Cuyo,Argentina",-38.6954269,-62.2812182
60,"Colli+di+Luni,Italy",0,0
61,"Mendocino/Lake+Counties,US",0,0
62,"San+Marino,Italy",45.8983636,11.6927814
63,"Haut-Poitou,France",44.7779286,-0.0573366
64,"Barbera+di+Piemonte,Italy",44.3641374,7.3660814
65,"Sancerre,France",47.3307251,2.8390333
66,"Valpolicella+Superiore+Ripasso,Italy",0,0
67,"Saint-Chinian,France",43.4215,2.94677
68,"Wellington,South+Africa",-33.643055,19.010556
69,"France+Other,France",0,0
70,"Lessona,Italy",45.5872701,8.1943371
71,"Central+Coast,US",-33.3117096,151.3120675
72,"Landwein+Rhein,Germany",0,0
73,"Waitaki+Valley,New+Zealand",-44.9129104,170.9916306
74,"North+Coast,US",-23.0053563,-43.3297952
75,"Colonia,Uruguay",-34.4698592,-57.8433679
76,"North+Coast,US",-23.0053563,-43.3297952
77,"Rapel+Valley,Chile",-33.9434247,-71.7380794
78,"Saint-Joseph,France",-21.3789306,55.6190645
79,"Luberon,France",43.83143,5.7752136
80,"Vin+Santo+di+Carmignano,Italy",0,0
81,"Erice,Italy",38.0374278,12.5869952
82,"North+Coast,US",-23.0053563,-43.3297952
83,"Custoza,Italy",45.376982,10.7962743
84,"Val+de+Loire,France",45.4399177,4.3878221
85,"Madeira,Portugal",32.75174875,-16.98175205
86,"Bonnezeaux,France",47.078553,-0.8367639
87,"North+Coast,US",-23.0053563,-43.3297952
88,"Torgiano,Italy",43.028542,12.44136
89,"Darling,South+Africa",-33.376426,18.379189
90,"Coteaux+de+Verdon,France",0,0
91,"Ilias,Greece",39.4591597,22.2130845
92,"Leverano,Italy",40.2894249,17.9994144
93,"Cafayate,Argentina",-26.071047,-65.9800655
94,"Vin+de+Pays+de+Vaucluse,France",0,0
95,"Negev+Hills,Israel",0,0
96,"Passito+di+Pantelleria,Italy",0,0
97,"Saint+Guilhem+le+Desert,France",43.734,3.54852
98,"Muscadet+Coteaux+de+la+Loire,France",0,0
99,"Lessini+Durello,Italy",0,0
100,"North+Coast,US",-23.0053563,-43.3297952
101,"Chignin-Bergeron,France",0,0
102,"Delia+Nivolelli,Italy",0,0
103,"McLaren+Vale-Beechworth,Australia",0,0
104,"Niederosterreich,Austria",48.2817813,15.7632457
105,"Toscana,Italy",43.4586541,11.1389204
106,"Costieres+de+Nimes,France",43.8170759,4.360587
107,"Catalonia,Spain",41.8523094,1.5745043
108,"Pennsylvania,US",40.9699889,-77.7278831
109,"Costa+Toscana,Italy",44.2091823,10.2612037
110,"Frascati+Superiore,Italy",0,0
111,"Vin+Mousseux,France",0,0
112,"Hautes+Cotes+de+Nuits,France",0,0
113,"Conero,Italy",43.5520619,13.6053591
114,"Curico+and+Leyda+Valleys,Chile",0,0
115,"Tarragona,Spain",41.1172364,1.2546057
116,"Brachetto+d'Acqui,Italy",0,0
117,"Amindeo,Greece",0,0
118,"Southern+Highlands,Australia",-34.4706676,150.4184048
119,"Macedon+Ranges,Australia",-37.2895759,144.458757
120,"Palmela,Portugal",38.6267848,-8.79263466
121,"Montagne-Saint-Emilion,France",44.9253754,-0.165846
122,"North+Coast,US",-23.0053563,-43.3297952
123,"Patagonia,Argentina",-44.99028505,-70.81737414
124,"Vin+de+Pays+Var,France",0,0
125,"Bourgueil,France",47.2827691,0.1788873
126,"Dolcetto+d'Asti,Italy",0,0
127,"Choapa+Valley,Chile",-31.7280122,-71.2080683
128,"Muzla,Slovakia",47.79697295,18.57719799
129,"Mount+Benson,Australia",-33.52941,120.07625
130,"Vin+de+Pays+de+Cotes+du+Tarn,France",0,0
131,"Colchagua+Valley,Chile",-34.548228,-71.4013194
132,"Napa,US",38.2971367,-122.2855293
133,"Pouilly-Loche,France",46.2784659,4.7688545
134,"Columbia+Valley,US",34.0007493,-81.0343313
135,"Goriska+Brda,Slovenia",45.9977226,13.5273596
136,"Cour-Cheverny,France",47.512759,1.4588243
137,"Vino+de+Calidad+de+Tierras+de+Leon,Spain",0,0
138,"Pafos,Cyprus",34.9169592,32.49821227
139,"Drama,Greece",41.1499443,24.1468286
140,"Muscadet+Sevre+et+Maine+Clisson,France",0,0
141,"Niagara-On-The-Lake,Canada",43.2551115,-79.0714896
142,"Apalta,Chile",-34.6239248,-71.2671251
143,"Vin+de+Pays+du+Lot,France",0,0
144,"Colli+del+Limbara,Italy",0,0
145,"Jurancon,France",43.2871825,-0.3896425
146,"Blaye+Cotes+de+Bordeaux,France",0,0
147,"Vacqueyras,France",44.1382621,4.9823958
148,"La+Rioja,Argentina",-29.4127411,-66.8558795
149,"Neszmely,Hungary",47.7357694,18.3654526
150,"Commandaria,Cyprus",0,0
151,"Yadkin+Valley,US",36.0223527,-81.4900963
152,"Atalanti+Valley,Greece",38.6740264,23.0941149
153,"Willamette+Valley,US",45.3442868,-122.6670374
154,"Mavrodaphne+of+Patras,Greece",0,0
155,"Northern+Cape,South+Africa",-29.573402,21.2051361
156,"California+Other,US",39.3565832,-120.1821578
157,"Lujan+de+Cuyo,Argentina",-33.1085238,-69.0129984
158,"Marche,Italy",43.3458388,13.1415872
159,"Champagne,France",48.0168,0.33179
160,"Central+Valley,US",38,-121.4
161,"Carmignano,Italy",45.1496279,11.6494087
162,"Murfatlar,Romania",44.170082,28.40117509
163,"Cotes+de+Duras,France",0,0
164,"Coteaux+du+Layon+Chaume,France",0,0
165,"Barossa+Valley-McLaren+Vale,Australia",0,0
166,"Langenlois,Austria",48.472601,15.676295
167,"Nasco+di+Cagliari,Italy",0,0
168,"Chambolle-Musigny,France",47.1864158,4.9533347
169,"Orcia,Italy",43.0200631,11.6087078
170,"Crozes-Hermitage,France",45.0907,4.84592
171,"Nelson,New+Zealand",-41.09940685,173.4288755
172,"Veneto,Italy",45.6476663,11.8665254
173,"Macon-Uchizy,France",46.5122378,4.8982181
174,"Szekszard,Hungary",46.3484884,18.701663
175,"Missouri,US",38.7604815,-92.5617875
176,"Primitivo+di+Manduria,Italy",0,0
177,"Valle+d'Aosta,Italy",45.730099,7.387426
178,"Langhorne+Creek-Limestone+Coast,Australia",0,0
179,"Canada,Canada",61.0666922,-107.9917071
180,"Corton+Perrieres,France",0,0
181,"Evia,Greece",38.046701,24.3251658
182,"Coteaux+du+Languedoc-Pezenas,France",0,0
183,"Vallee+du+Paradis,France",0,0
184,"Sovana,Italy",42.6570045,11.6465486
185,"Saint-Julien,France",43.70391165,5.913477504
186,"Galil,Israel",32.7930976,35.0148826
187,"Pangeon,Greece",0,0
188,"Fixin,France",47.2455008,4.9728452
189,"San+Clemente,Chile",-36.1906591,-71.7513657
190,"Nebbiolo+d'Alba,Italy",44.6945665,8.0141821
191,"Tokaji,Hungary",48.1658637,21.38138243
192,"Orvieto+Classico+Superiore,Italy",0,0
193,"Aglianico+del+Vulture,Italy",0,0
194,"Vin+de+Pays+de+Velvendo,Greece",0,0
195,"Kangaroo+Island,Australia",-32.623053,152.1950829
196,"Vin+de+Pays+des+Coteaux+de+Peyriac,France",0,0
197,"Danube+River+Plains,Bulgaria",0,0
198,"Vin+de+Pays+des+Cotes+de+Thongue,France",0,0
199,"Laudun,France",44.1056956,4.657231
200,"Chaume,France",47.569832,5.3511733
201,"Helderberg,South+Africa",-34.0494444,18.8344444
202,"Pouilly-Fume,France",0,0
203,"Barossa,Australia",-34.61341495,138.9385455
204,"Serra+Gaucha,Brazil",-29.354907,-50.1726428
205,"Dolcetto+di+Dogliani,Italy",0,0
206,"Noto,Italy",36.8908864,15.0706454
207,"Long+Island,US",36.6626521,-75.9346486
208,"Germany,Germany",51.0834196,10.4234469
209,"Sierra+Foothills,US",33.58458185,-111.8089768
210,"Clos+de+Tart,France",47.1956198,4.959588539
211,"Cyclades,Greece",36.4106263,25.4436646
212,"Colinele+Dobrogei,Romania",0,0
213,"Vin+de+Pays+des+Pyrenees+Orientales,France",0,0
214,"Western+Australia,Australia",-25.2303005,121.0187246
215,"Australia,Australia",-24.7761086,134.755
216,"Vin+de+Savoie,France",45.5002411,6.0608775
217,"Lamezia,Italy",38.9391666,16.2634823
218,"Southeastern+New+England,US",0,0
219,"Lebanon,Lebanon",33.8750629,35.843409
220,"Apremont,France",45.5132,5.95937
221,"Cilento,Italy",40.2195354,15.1771512
222,"Breedekloof,South+Africa",0,0
223,"South+Coast,US",32.7469891,-117.2516124
224,"California+Other,US",39.3565832,-120.1821578
225,"Liguria,Italy",44.4777617,8.7026296
226,"Attica,Greece",36.2131891,22.9858147
227,"Vin+de+Pays+du+Gard,France",0,0
228,"Menfi,Italy",37.606639,12.967843
229,"Vino+de+Calidad+de+Valtiendas,Spain",0,0
230,"Messinia,Greece",37.04379965,22.11336981
231,"Lazio,Italy",41.9808038,12.7662312
232,"Marca+Trevigiana,Italy",0,0
233,"Mantinia,Greece",36.9535613,22.1580433
234,"Samson,Israel",31.9254929,34.8702683
235,"Matra,Hungary",47.8857587,19.95071909
236,"Casorzo,Italy",45.0233901,8.3345031
237,"Stirling,New+Zealand",-46.2460264,169.7827317
238,"Big+Valley+District-Lake+County,US",0,0
239,"Martina,Italy",40.8290824,15.1676079
240,"Central+Coast,US",-33.3117096,151.3120675
241,"Rubicone,Italy",44.0933443,12.3960576
242,"Guerrouane,Morocco",0,0
243,"Hawke's+Bay,New+Zealand",-39.4343279,176.7652742
244,"Pemberton,Australia",-34.4441275,116.0346584
245,"Redwood+Valley,US",39.2654449,-123.2044496
246,"Macon-Davaye,France",46.2989681,4.7653692
247,"Alenquer,Portugal",39.056633,-9.0076057
248,"Irancy,France",47.7132623,3.6653566
249,"Langhorne+Creek,Australia",-35.295938,139.0364451
250,"Sonoma,US",38.5110803,-122.8473388
251,"Cotes+de+Castillon,France",0,0
252,"Valle+de+Guadalupe+and+Santo+Tomas,Mexico",0,0
253,"Central+Coast,US",-33.3117096,151.3120675
254,"Beaujolais,France",45.5906506,5.9179924
255,"Clos+Saint-Denis,France",47.1671118,4.9531946
256,"Vale+dos+Vinhedos,Brazil",-29.18157965,-51.5832778
257,"Jidvei,Romania",46.2224475,24.1106119
258,"Central+Valley,Chile",-18.3602663,-69.9587813
259,"Oregon+Other,US",45.5625404,-122.6665296
260,"Loire+Valley,France",45.75385355,4.045473683
261,"Squinzano,Italy",40.436528,18.04182
262,"Cotes+de+Provence,France",43.4366788,6.654233407
263,"Rheinhessen,Germany",49.9045181,8.2711082
264,"Sierra+Foothills,US",33.58458185,-111.8089768
265,"Delle+Venezie,Italy",45.34851865,11.95717971
266,"Verdicchio+dei+Castelli+di+Jesi+Classico,Italy",0,0
267,"San+Rafael,Argentina",-34.6126025,-68.330514
268,"Coste+della+Sesia,Italy",0,0
269,"Dolcetto+d'Acqui,Italy",0,0
270,"Vin+de+Pays+des+Cotes+de+Thau,France",0,0
271,"Coteaux+du+Languedoc+Pic+Saint+Loup,France",0,0
272,"North+Coast,US",-23.0053563,-43.3297952
273,"Mazoyeres-Chambertin,France",47.2069405,4.967493302
274,"Griotte-Chambertin,France",47.21420335,4.96863546
275,"Almansa,Spain",38.8682065,-1.0978627
276,"Valpolicella,Italy",45.5296706,10.9400217
277,"Saint-Georges-Saint-Emilion,France",0,0
278,"Outer+Coastal+Plain,US",28.4010173,-82.5469092
279,"Central+Coast,US",-33.3117096,151.3120675
280,"Rio+Claro,Chile",-37.2046363,-72.3576015
281,"Sonoma,US",38.5110803,-122.8473388
282,"Colline+Teatine,Italy",0,0
283,"Central+Coast,US",-33.3117096,151.3120675
284,"North+Coast,US",-23.0053563,-43.3297952
285,"Adelaide+Hills,Australia",-34.90135165,138.8293203
286,"Baden,Germany",52.9996895,9.0801053
287,"Terre+del+Volturno,Italy",0,0
288,"Central+Coast,US",-33.3117096,151.3120675
289,"Piccadilly+Valley,Australia",-34.9822479,138.7262528
290,"Blanquette+de+Limoux,France",42.966765,2.1817641
291,"California+Other,US",39.3565832,-120.1821578
292,"Clos+de+Lambrays,France",47.19806455,4.95900208
293,"Castelli+Romani,Italy",44.87241305,7.307367082
294,"Devon+Valley,South+Africa",-26.3572222,28.7816667
295,"Priorat,Spain",41.2137983,0.811623628
296,"Willamette+Valley,US",45.3442868,-122.6670374
297,"Sierra+Foothills,US",33.58458185,-111.8089768
298,"Verdicchio+di+Matelica,Italy",43.2185295,12.9872027
299,"Umbria,Italy",42.965916,12.490236
300,"Prosecco+di+Valdobbiadene,Italy",45.8734603,12.0275133
301,"Curtefranca,Italy",0,0
302,"Curico+and+Maipo+Valleys,Chile",0,0
303,"Valpolicella+Ripasso,Italy",0,0
304,"Vino+de+la+Tierra+de+Cadiz,Spain",0,0
305,"Cote+de+Brouilly,France",46.0893824,4.6470174
306,"Cesanese+del+Piglio,Italy",0,0
307,"Vino+de+la+Tierra+del+Bajo+Aragon,Spain",0,0
308,"St.-Veran,France",44.6993395,6.8687131
309,"Vin+de+Pays+des+Collines+Rhodaniennes,France",0,0
310,"Niagara+Escarpment,Canada",43.6365799,-79.9940653
311,"Sardon+de+Duero,Spain",41.6085193,-4.4339323
312,"Romania,Romania",45.9852129,24.6859225
313,"North+Coast,US",-23.0053563,-43.3297952
314,"Canterbury,New+Zealand",-43.49417615,171.8098448
315,"Tierra+de+Castilla,Spain",41.9533522,-3.4780483
316,"Alto+Valle+de+Uco,Argentina",0,0
317,"Mavrodaphne+de+Cephalonie,Greece",0,0
318,"Eloro,Italy",36.84229325,15.10697746
319,"Finger+Lakes,US",39.6214952,-84.198677
320,"Nuits-St.-Georges,France",47.134979,4.9540989
321,"Moldova,Moldova",47.286747,28.5110236
322,"Pocerina,Serbia",0,0
323,"Lot,France",44.6249918,1.665774217
324,"Transmontanas,Portugal",0,0
325,"Murfatlar+Cernavoda,Romania",0,0
326,"Toro,Spain",41.5216963,-5.3939824
327,"Napa,US",38.2971367,-122.2855293
328,"Vino+de+Mesa,Spain",0,0
329,"Bonnes-Mares,France",48.6264989,1.8579936
330,"Western+Connecticut+Highlands,US",41.5876342,-72.70696778
331,"Felso-Magyarorszag,Hungary",48.0733468,20.651781
332,"Sonoma,US",38.5110803,-122.8473388
333,"Maule+Valley,Chile",-35.5972284,-71.48868
334,"Martinborough,New+Zealand",-41.2183252,175.4594856
335,"Cannonau+di+Sardegna,Italy",0,0
336,"Kathikas,Cyprus",34.9125401,32.4257815
337,"Sudburgenland,Austria",47.3043825,16.19313411
338,"Castel+del+Monte,Italy",41.08474385,16.27094119
339,"Calchaqui+Valley,Argentina",-47.1110925,-68.29781504
340,"Central+Coast,US",-33.3117096,151.3120675
341,"Coteaux+Varois,France",0,0
342,"El+Colorado,Uruguay",-34.6822337,-56.2911865
343,"Banyuls,France",42.4794084,3.1275893
344,"Tierra+Manchuela,Spain",0,0
345,"Vin+de+Pays+de+la+Mediterranee,France",0,0
346,"Donnici,Italy",39.247472,16.3045561
347,"Puglia,Italy",40.9842539,16.6210027
348,"Port,Portugal",37.0174596,-7.973911066
349,"La+Consulta,Argentina",-33.7366936,-69.1185092
350,"Corbieres-Boutenac,France",43.1486332,2.7942614
351,"Central+Coast,US",-33.3117096,151.3120675
352,"Coteaux+du+Giennois,France",47.6831795,2.6534443
353,"Ile+de+Beaute,France",48.1718972,2.2561863
354,"Cote+Roannaise,France",46.07327765,3.915921937
355,"North+Dalmatia,Croatia",44.1128312,15.2264693
356,"Lambrusco+di+Modena,Italy",44.753007,11.009671
357,"Michigan,US",43.6211955,-84.6824346
358,"Beni+M'Tir,Morocco",33.8254023,-6.0807404
359,"Amarone+della+Valpolicella+Classico,Italy",0,0
360,"Western+Cape,South+Africa",-33.546977,20.72753
361,"Savigny-les-Beaune,France",47.0628612,4.8185532
362,"Washington+Other,US",37.751428,-87.139672
363,"Gevrey-Chambertin,France",47.2261857,4.9705666
364,"Campania,Italy",40.860672,14.843984
365,"Venezia+Giulia,Italy",44.4783698,11.3818595
366,"Amarone+della+Valpolicella,Italy",0,0
367,"Faugeres,France",43.5647,3.19044
368,"Garda+Classico,Italy",0,0
369,"Sierra+Foothills,US",33.58458185,-111.8089768
370,"Barbera+d'Asti,Italy",0,0
371,"San+Carlos,Argentina",-46.4321345,-67.94937405
372,"Friuli+Isonzo,Italy",45.9160611,13.458748
373,"Corton-Bressandes,France",47.0731697,4.868231646
374,"Extremadura,Spain",39.1748426,-6.1529891
375,"Guenoc+Valley,US",38.792,-122.570971
376,"Siracusa,Italy",37.0646139,15.2907196
377,"Salento,Italy",40.248604,15.190058
378,"Colli+Orientali+del+Friuli,Italy",0,0
379,"Corinth,Greece",37.9386936,22.9280447
380,"Arribes+del+Duero,Spain",41.44974,2.210299
381,"Australia-New+Zealand,Australia",0,0
382,"Margaret+River,Australia",-33.9531776,115.0769369
383,"Elgin,South+Africa",-34.1486111,19.0427778
384,"Veneto,Italy",45.6476663,11.8665254
385,"Rose+d'Anjou,France",47.4920035,-0.5021085
386,"Colli+Etruria+Centrale,Italy",0,0
387,"Juanico,Uruguay",-34.5951621,-56.2537148
388,"Central+Coast,US",-33.3117096,151.3120675
389,"Sliven,Bulgaria",42.6817633,26.3153528
390,"Mamertino,Italy",38.0315592,14.7725171
391,"Coteaux+du+Tricastin,France",0,0
392,"Chassagne-Montrachet,France",46.93636,4.72736
393,"Bourgogne,France",49.35551035,4.06814172
394,"Dolcetto+di+Monferrato,Italy",0,0
395,"Rapsani,Greece",39.9020296,22.54849
396,"Moutere,New+Zealand",-41.1515967,172.9961297
397,"Cheverny,France",47.4996989,1.4611064
398,"Saint-Chinian-Roquebrun,France",0,0
399,"Pfalz,Germany",51.90263795,10.42476853
400,"Penedes,Spain",41.2889874,1.5911757
401,"Prosecco,Italy",45.7083528,13.733628
402,"Auxey-Duresses,France",46.9862244,4.7467921
403,"Vi+de+la+Terra+Mallorca,Spain",0,0
404,"Colli+Tortonesi,Italy",0,0
405,"Bulgaria,Bulgaria",42.6073975,25.4856617
406,"Lenswood,Australia",-34.920215,138.8284007
407,"California+Other,US",39.3565832,-120.1821578
408,"Biferno+Bianco,Italy",0,0
409,"Jumilla,Spain",38.4734708,-1.3285448
410,"Vouvray,France",47.4136687,0.7998446
411,"Bordeaux+Rose,France",44.841225,-0.5800364
412,"Pitsilia+Mountains,Cyprus",0,0
413,"Central+Coast,US",-33.3117096,151.3120675
414,"Croatia,Croatia",45.5643442,17.0118954
415,"Reuilly,France",48.83520025,2.445135855
416,"Simonsberg-Stellenbosch,South+Africa",-33.883948,18.9271246
417,"Var,France",43.4173595,6.266128785
418,"North+Coast,US",-23.0053563,-43.3297952
419,"Gers,France",43.6955276,0.410101918
420,"Ohio+River+Valley,US",38.7877904,-84.8101254
421,"Pedernal+Valley,Argentina",-31.9961261,-68.7644217
422,"Tarantino,Italy",40.8498824,14.2294206
423,"Bardolino+Chiaretto,Italy",0,0
424,"Meursault,France",46.9783803,4.7694038
425,"Central+Italy,Italy",42.611735,-77.2919246
426,"Alpilles,France",47.75305525,7.385015
427,"Cotes+du+Roussillon+Les+Aspres,France",0,0
428,"Macon-Verge,France",0,0
429,"Cotes+de+Bordeaux+Francs,France",0,0
430,"Aconcagua+Costa,Chile",0,0
431,"Neuquen,Argentina",-38.3695057,-69.832275
432,"Kutjevo,Croatia",45.423994,17.882287
433,"Vino+da+Mesa+de+Toledo,Spain",0,0
434,"Dao,Portugal",40.6325442,-8.659164151
435,"Neusiedlersee,Austria",47.8030761,16.64696197
436,"Bardolino,Italy",45.5475595,10.7242145
437,"Limoux,France",43.0538068,2.2176533
438,"Central+Valley,US",38,-121.4
439,"China,China",35.000074,104.999927
440,"Styria,Austria",47.2500001,15.1666665
441,"Mazis-Chambertin,France",47.2201931,4.966842121
442,"Malvasia+delle+Lipari,Italy",0,0
443,"Ella+Valley,Israel",32.6900085,35.4159734
444,"Central+Valley,US",38,-121.4
445,"Philadelphia,South+Africa",-33.666635,18.580989
446,"Breede+River+Valley,South+Africa",-33.7641013,19.5959321
447,"Aude,France",43.0542733,2.512471457
448,"Uco+Valley,Argentina",-34.5788471,-58.4353082
449,"Peumo,Chile",-34.3898607,-71.1718297
450,"Bizkaiko+Txakolina,Spain",43.2811054,-2.1793064
451,"Central+Coast,US",-33.3117096,151.3120675
452,"Cotes+du+Roussillon+Villages+Tautavel,France",0,0
453,"Cole+Ranch,US",32.020114,-102.713209
454,"Muscadet,France",46.7703522,-0.4318968
455,"Barossa-Adelaide+Hills,Australia",-35.003996,138.7164521
456,"Riviera+Ligure+di+Ponente,Italy",44.4270691,8.7868476
457,"Assisi,Italy",43.0711952,12.6146669
458,"Rias+Baixas,Spain",36.7235378,-4.42351
459,"Salice+Salentino,Italy",40.3856618,17.9637483
460,"Emilia,Italy",43.4296529,10.4822036
461,"Candia+Dei+Colli+Apuani,Italy",0,0
462,"Sonoma,US",38.5110803,-122.8473388
463,"Kremstal,Austria",48.2771082,14.2767326
464,"Similkameen+Valley,Canada",49.45603675,-120.1907517
465,"Sant'Antimo,Italy",40.945711,14.231429
466,"South+Coast,US",32.7469891,-117.2516124
467,"Malgas,South+Africa",-33.9416681,22.4195391
468,"Irrouleguy,France",0,0
469,"Egypt,Egypt",26.2540493,29.2675469
470,"Buenos+Aires,Argentina",-34.6075616,-58.437076
471,"Clairette+de+Bellegarde,France",0,0
472,"Napa,US",38.2971367,-122.2855293
473,"Traisental,Austria",48.1299677,15.5993819
474,"Central+Valley,US",38,-121.4
475,"Roero,Italy",46.1127081,11.3064236
476,"Puligny-Montrachet,France",46.94497,4.75393
477,"San+Juan,Argentina",-46.74517175,-67.13983019
478,"Corse+Porto+Vecchio,France",41.5887793,9.2840905
479,"Santorini,Greece",36.4044251,25.3958561
480,"Cotes+de+Bergerac,France",44.8411394,0.7425907
481,"Transmontano,Portugal",41.4357652,-8.2953134
482,"Currency+Creek-McLaren+Vale,Australia",0,0
483,"Maipu,Argentina",-49.147049,-72.4839249
484,"Colli+Aprutini,Italy",0,0
485,"South+Africa,South+Africa",-28.8166236,24.991639
486,"Macon-Chardonnay,France",46.5097977,4.862258
487,"Cape+Agulhas,South+Africa",-34.8332036,19.9999325
488,"Short+Hills+Bench,Canada",0,0
489,"Corton-Pougets,France",47.06938005,4.857646777
490,"California+Other,US",39.3565832,-120.1821578
491,"Coda+di+Volpe+d'Irpinia,Italy",0,0
492,"Abruzzo,Italy",42.227681,13.854983
493,"Perdriel,Argentina",-33.0801379,-68.8862665
494,"Barossa+Valley,Australia",-34.61341495,138.9385455
495,"Texas+High+Plains,US",29.6642381,-98.1444271
496,"Aglianico+del+Taburno,Italy",0,0
497,"Mornington+Peninsula,Australia",-38.243315,145.0885432
498,"Cotes+de+Bordeaux,France",44.73110855,-0.318706385
499,"Beneventano,Italy",36.8100217,14.8175347
500,"Castilla+La+Mancha,Spain",39.4177902,-2.6232332
501,"Chignin,France",45.523749,6.0116094
502,"Casablanca-Curico+Valley,Chile",-35.07216595,-71.25589332
503,"Vino+da+Tavola,Italy",41.8988768,12.5035512
504,"Ribeira+Sacra,Spain",43.2924591,-2.9921018
505,"Switzerland,Switzerland",46.7985624,8.2319736
506,"Tarnave,Romania",46.2039175,24.54602999
507,"Washington+Other,US",37.751428,-87.139672
508,"Garda,Italy",45.66131875,10.68510434
509,"Agrelo,Argentina",-33.1184629,-68.8859261
510,"Lake+County-Mendocino+County,US",0,0
511,"Ismarikos,Greece",0,0
512,"Vin+de+Pays+de+la+Haute+Vallee+de+l'Aude,France",0,0
513,"Dominio+de+Valdepusa,Spain",0,0
514,"Mendocino/Lake+Counties,US",0,0
515,"Valdobbiadene+Superiore+di+Cartizze,Italy",0,0
516,"Isola+dei+Nuraghi,Italy",40.7092763,9.698963
517,"Dealu+Mare,Romania",45.15883225,25.44781301
518,"Asolo+Prosecco+Superiore,Italy",0,0
519,"Macon-Milly+Lamartine,France",46.3508165,4.700772
520,"Aude+Hauterive,France",0,0
521,"Vin+de+Pays+Vignobles+de+France,France",0,0
522,"Klein+River,South+Africa",-34.3259555,19.5681494
523,"Padthaway,Australia",-36.5860356,140.5218734
524,"Beaujolais+Blanc,France",46.2175474,4.5203971
525,"Savennieres,France",47.3830917,-0.6570828
526,"Cochise+County,US",31.8514532,-109.8181858
527,"Napa-Sonoma,US",38.29501795,-122.4759997
528,"Georgia,Georgia",41.6809707,44.0287382
529,"Zonda+Valley,Argentina",-30.3924889,-69.2099108
530,"Durbanville,South+Africa",-33.8402778,18.6494444
531,"South+Australia-Victoria,Australia",-30.5343665,135.6301212
532,"Napa-Sonoma,US",38.29501795,-122.4759997
533,"Piave,Italy",45.8483997,12.0472209
534,"Volnay,France",47.0016955,4.7811102
535,"Central+Coast,US",-33.3117096,151.3120675
536,"Napa,US",38.2971367,-122.2855293
537,"Monthelie,France",46.9928724,4.7658083
538,"St.-Romain,France",45.4889832,3.8949653
539,"Gladstone,New+Zealand",-41.0773358,175.658192
540,"Lugana,Italy",45.7832809,11.7906828
541,"Brda,Slovenia",46.0162019,13.54891023
542,"Willamette+Valley,US",45.3442868,-122.6670374
543,"Cerons,France",44.6316828,-0.3349069
544,"Cotes+de+Provence+La+Londe,France",0,0
545,"Piedmont,Italy",33.547545,-86.902243
546,"Vougeot,France",47.1772352,4.9643152
547,"Primitivo+del+Tarantino,Italy",0,0
548,"Provence,France",43.3207966,5.368422914
549,"St.-Amour,France",46.4358751,5.3421832
550,"Trento,Italy",46.0664228,11.1257601
551,"North+Carolina,US",35.6729639,-79.0392919
552,"Bierzo,Spain",42.61884635,-6.65184367
553,"Rio+Negro+Valley,Argentina",-39.6650033,-65.4144268
554,"Valle+de+Uco,Argentina",0,0
555,"Waipara+Valley,New+Zealand",-43.1052329,172.7679265
556,"Moscatel+de+Setubal,Portugal",38.63117475,-8.913360268
557,"Lago+di+Corbara,Italy",42.7274798,12.2545458
558,"Southern+Fleurieu,Australia",0,0
559,"Vin+de+Pays+de+France,France",0,0
560,"Thessalikos,Greece",0,0
561,"Polkadraai+Hills,South+Africa",0,0
562,"Mendocino+Ridge,US",39.3176491,-123.4126399
563,"Rosso+di+Montalcino,Italy",0,0
564,"Medoc,France",45.5585306,-0.498764
565,"Bucelas,Portugal",38.9016248,-9.118728
566,"Beaujolais-Leynes,France",0,0
567,"Cigales,Spain",41.7584063,-4.6990798
568,"Mittelburgenland,Austria",47.504516,16.49443026
569,"Pirque,Chile",-33.6348808,-70.5729961
570,"Central+Coast,US",-33.3117096,151.3120675
571,"Barbera+d'Asti+Superiore+Nizza,Italy",0,0
572,"Valpolicella+Classico,Italy",0,0
573,"Kyoto,Japan",35.021041,135.7556075
574,"Jonkershoek+Valley,South+Africa",-33.9359931,18.8741204
575,"South+Coast,US",32.7469891,-117.2516124
576,"Central+Coast,US",-33.3117096,151.3120675
577,"Vin+de+Pays+des+Alpilles,France",0,0
578,"Bergerac,France",44.8534568,0.487531
579,"Bordeaux+Clairet,France",0,0
580,"Southwest+France,France",46.603354,1.8883335
581,"Faro,Italy",40.7798952,14.0886704
582,"Napa-Sonoma,US",38.29501795,-122.4759997
583,"Cava,Spain",42.3251075,1.6057884
584,"Eden+Valley,Australia",-34.6666979,139.1299649
585,"Central+Coast,US",-33.3117096,151.3120675
586,"Moscato+d'Asti,Italy",0,0
587,"Monferrato,Italy",45.0630557,7.7000997
588,"Cederberg,South+Africa",-32.5016978,19.2550823
589,"Entre-Deux-Mers,France",44.8454885,-0.5328314
590,"Tikves,Macedonia",41.9940075,21.4394921
591,"Sebino,Italy",45.73895515,10.07081881
592,"Atlantique,France",44.183342,0.6216957
593,"Vin+de+Pays+de+Macedoine,Greece",0,0
594,"Arlanza,Spain",42.01523205,-3.729163443
595,"Mount+Barker+&+Margaret+River,Australia",-35.0641302,138.8586385
596,"Dolenjska,Slovenia",46.06098335,14.52631634
597,"Beaujolais-Villages,France",0,0
598,"Friuli+Grave,Italy",46.2116398,12.4131488
599,"Long+Island,US",36.6626521,-75.9346486
600,"Muscat+de+Beaumes+de+Venise,France",0,0
601,"High+Valley,US",31.0826699,-98.5361482
602,"Contessa+Entellina,Italy",37.7309803,13.1831444
603,"Vin+de+Pays+des+Cevennes,France",0,0
604,"Illinois,US",40.0796606,-89.4337288
605,"Brulhois,France",44.1085491,0.459414315
606,"Piekenierskloof,South+Africa",-32.6056264,18.9340699
607,"Pessac-Leognan,France",0,0
608,"Montagny,France",46.5319384,4.5572029
609,"Krania+Olympus,Greece",0,0
610,"Dan,Israel",33.2227869,35.6392669
611,"Negev,Israel",30.5,34.9166667
612,"California+Other,US",39.3565832,-120.1821578
613,"Sonoma,US",38.5110803,-122.8473388
614,"Stellenbosch,South+Africa",-33.934444,18.869167
615,"McLaren+Vale,Australia",-35.2172617,138.5416998
616,"Tasmania,Australia",-42.035067,146.6366887
617,"Marcillac,France",45.27374695,-0.499559618
618,"Montepulciano+d'Abruzzo,Italy",0,0
619,"Maremma,Italy",44.2360427,8.4298691
620,"Cotes+de+Nuits+Villages,France",0,0
621,"Gioia+del+Colle,Italy",40.796728,16.92359
622,"North+Coast,US",-23.0053563,-43.3297952
623,"Vin+Petillant,France",0,0
624,"Haut-Medoc,France",49.3549588,6.1578459
625,"Barsac,France",44.6043291,-0.323435
626,"Fiano+di+Avellino,Italy",0,0
627,"Sudoststeiermark,Austria",46.85967165,15.85036475
628,"Isonzo+del+Friuli,Italy",45.94521685,13.52962142
629,"Gundagai,Australia",-34.80940095,148.1088141
630,"Pinto+Bandeira,Brazil",-29.0922692,-51.45517118
631,"Cote+de+Beaune,France",47.0178048,4.789958023
632,"Beechworth,Australia",-36.3594895,146.6870123
633,"Del+Veneto,Italy",45.6476663,11.8665254
634,"Douro,Portugal",41.17004195,-7.304749812
635,"Cahors,France",44.4495,1.4364999
636,"Coteaux+Bourguignons,France",0,0
637,"New+Mexico,US",34.5708167,-105.993007
638,"America,US",40.6792089,-85.7019246
639,"East+Coast,New+Zealand",0,0
640,"Valpolicella+Valpantena+Superiore,Italy",0,0
641,"Venezie,Italy",45.34851865,11.95717971
642,"South+Island,New+Zealand",-43.586562,171.2123294
643,"Vin+de+Pays+de+Sainte-Marie+la+Blanche,France",0,0
644,"Criots-Batard-Montrachet,France",0,0
645,"Central+Coast,US",-33.3117096,151.3120675
646,"Austria,Austria",47.2000338,13.199959
647,"Trebbiano+d'Abruzzo,Italy",0,0
648,"Soave+Classico+Superiore,Italy",0,0
649,"Italy+Other,Italy",0,0
650,"Corton-Rognet,France",47.0754421,4.874665256
651,"Henty,Australia",-35.5165547,147.0340204
652,"Orvieto,Italy",42.7186152,12.1087907
653,"Central+Valley,US",38,-121.4
654,"Valli+di+Porto+Pino,Italy",0,0
655,"California+Other,US",39.3565832,-120.1821578
656,"Macon+Solutre,France",46.2969485,4.7241794
657,"Vinho+da+Mesa,Portugal",0,0
658,"Cevennes,France",48.68049515,2.172205159
659,"Finger+Lakes,US",39.6214952,-84.198677
660,"Chianti+Colli+Fiorentini,Italy",0,0
661,"King+Valley,Australia",-36.71733,146.4796117
662,"Vipavska+Dolina,Slovenia",45.942126,13.640288
663,"Roussette+de+Savoie,France",0,0
664,"Montefalco+Sagrantino,Italy",0,0
665,"Bolgheri+Sassicaia,Italy",0,0
666,"Moscato+di+Trani,Italy",0,0
667,"Tierra+del+Vinos+de+Zamora,Spain",0,0
668,"Regnie,France",46.1384747,4.6420871
669,"Rapel+Valley-Casablanca+Valley,Chile",0,0
670,"Eastern+Bays,New+Zealand",0,0
671,"Fara,Italy",45.90802,13.5165379
672,"Wachau,Austria",48.4127894,15.566652
673,"Menetou-Salon,France",47.2315397,2.4886282
674,"Upper+Galilee,Israel",32.8616632,35.2640128
675,"Napa,US",38.2971367,-122.2855293
676,"Mitterberg,Italy",46.7031249,12.3548006
677,"Bordeaux,France",44.841225,-0.5800364
678,"Valdepenas,Spain",38.7594573,-3.3847392
679,"New+York+Other,US",0,0
680,"Eisenberg,Austria",47.1982294,16.411415
681,"Napa,US",38.2971367,-122.2855293
682,"Vin+de+Pays+de+l'Ile+de+Beaute,France",0,0
683,"Ioannina,Greece",39.6639818,20.8522784
684,"Loazzolo,Italy",44.669043,8.258442
685,"Montenetto+di+Brescia,Italy",45.4569775,10.1462625
686,"Tupungato,Argentina",-33.3723648,-69.1479533
687,"Moravia,Czech+Republic",49.2201995,16.5189757
688,"Sainte-Foy+Bordeaux,France",0,0
689,"Santa+Cruz,Chile",-34.6403243,-71.3661297
690,"Lanzarote,Spain",29.03970805,-13.63629161
691,"Olifants+River,South+Africa",-25.6270251,29.237252
692,"California+Other,US",39.3565832,-120.1821578
693,"Sonoita,US",31.6723455,-110.6619555
694,"Willamette+Valley,US",45.3442868,-122.6670374
695,"Cotes+du+Rhone+Villages,France",45.4559451,5.5192803
696,"Central+Coast,US",-33.3117096,151.3120675
697,"Minho,Portugal",41.8880387,-8.5542415
698,"Calatayud,Spain",41.3527628,-1.6422977
699,"Thermenregion,Austria",48.1426648,16.9575167
700,"Saumur,France",47.25417435,-0.066185389
701,"Beaujolais+Rose,France",46.1125998,4.7301906
702,"Bardolino+Classico,Italy",0,0
703,"Chalkidiki,Greece",40.28948215,23.40939243
704,"Central+Victoria,Australia",-11.3299555,-67.6954911
705,"Vin+de+Pays+de+Montferrand,France",0,0
706,"Barbera+d'Alba,Italy",0,0
707,"Achaia,Greece",38.0692748,21.87273042
708,"Central+Coast,US",-33.3117096,151.3120675
709,"Waiheke+Island,New+Zealand",-36.7930971,175.088401
710,"Gravina,Italy",37.5603691,15.0617632
711,"Hvar,Croatia",43.1739813,16.55647207
712,"Sonoma,US",38.5110803,-122.8473388
713,"Rully,France",48.8291991,-0.714052069
714,"Sardinia,Italy",40.06160405,9.097753807
715,"Corse,France",42.18808965,9.068413771
716,"Codru+Region,Moldova",0,0
717,"Macon-Verze,France",46.3869887,4.7516351
718,"Clos+de+la+Roche,France",46.7966369,4.7494197
719,"Curico+Valley,Chile",-34.9853329,-71.2394072
720,"South+Coast,US",32.7469891,-117.2516124
721,"Ohio,US",40.2253569,-82.6881395
722,"California+Other,US",39.3565832,-120.1821578
723,"Clare+Valley-Eden+Valley,Australia",0,0
724,"San+Gimignano,Italy",43.4677993,11.0432115
725,"North+Coast,US",-23.0053563,-43.3297952
726,"Alentejano,Portugal",38.8420973,-7.5871415
727,"Yecla,Spain",38.6136138,-1.1156761
728,"Friuli,Italy",45.4548329,9.2136403
729,"Canelones,Uruguay",-34.5242373,-56.2817519
730,"Manchuela,Spain",40.9704298,-4.3796261
731,"Kakheti,Georgia",41.737352,45.6721781
732,"Beira+Atlantico,Portugal",0,0
733,"Ciro,Italy",39.381732,17.0613529
734,"Soave+Colli+Scaligeri,Italy",0,0
735,"Carignano+del+Sulcis,Italy",0,0
736,"Terrasses+du+Larzac,France",43.7152761,3.488880169
737,"Lemesos,Cyprus",34.79489125,32.98558938
738,"Vin+Santo+del+Chianti+Rufina,Italy",0,0
739,"Alicante-Marina+Alta,Spain",38.8379348,0.1021294
740,"Sonoma,US",38.5110803,-122.8473388
741,"Casablanca+Valley,Chile",-33.3205864,-71.4100762
742,"Barbera+d'Asti+Superiore,Italy",0,0
743,"Vittoria+Frappato,Italy",36.9809772,14.5505655
744,"Gaillac,France",43.9016766,1.8967943
745,"New+Jersey,US",40.0757384,-74.4041622
746,"California-Oregon,US",41.209752,-122.2716101
747,"Oregon+Other,US",45.5625404,-122.6665296
748,"Vittoria,Italy",36.9514957,14.5304867
749,"Picpoul+de+Pinet,France",43.4069838,3.509504
750,"San+Jose,Uruguay",-32.8332395,-55.5302431
751,"Quebec,Canada",52.4760892,-71.8258668
752,"Mendocino/Lake+Counties,US",0,0
753,"Sierra+Foothills,US",33.58458185,-111.8089768
754,"Chinon,France",47.1667182,0.2402095
755,"Central+Coast,US",-33.3117096,151.3120675
756,"Mendocino/Lake+Counties,US",0,0
757,"Chenas,France",46.2119329,4.7190138
758,"Andalucia,Spain",37.3399964,-4.5811614
759,"Pannon,Hungary",47.5353456,21.56437286
760,"Cotes+de+Bourg,France",45.8810201,5.1383614
761,"Cortese+di+Gavi,Italy",0,0
762,"Viile+Timisului,Romania",0,0
763,"Alto+Adige+Terlano,Italy",0,0
764,"Chevalier-Montrachet,France",46.9466831,4.7373286
765,"Cephalonia,Greece",38.2660243,20.53730065
766,"Lacrima+di+Morro+d'Alba,Italy",0,0
767,"Gerania,Greece",40.0113483,22.1352342
768,"Todi,Italy",42.7824434,12.4062554
769,"Emporada-Costa+Brava,Spain",0,0
770,"Cerasuolo+di+Vittoria+Classico,Italy",0,0
771,"Chardonnay+di+Toscana,Italy",0,0
772,"Cerasuolo+d'Abruzzo,Italy",0,0
773,"Lussac+Saint-Emilion,France",0,0
774,"Molise,Italy",41.684672,14.595614
775,"South+Coast,US",32.7469891,-117.2516124
776,"Breganze,Italy",45.7081441,11.5647668
777,"Saint-Nicolas-de-Bourgueil,France",47.2843794,0.1256895
778,"La+Romanee,France",47.4013892,4.1072943
779,"Columbia+Valley,US",34.0007493,-81.0343313
780,"North+Coast,US",-23.0053563,-43.3297952
781,"Altos+de+Mendoza,Argentina",-32.9451452,-60.7279173
782,"Est!+Est!!+Est!!!+di+Montefiascone,Italy",42.5364691,12.0276094
783,"Central+Coast,US",-33.3117096,151.3120675
784,"Vigneti+delle+Dolomiti,Italy",0,0
785,"Provincia+di+Pavia,Italy",45.03685465,9.137825083
786,"Central+Ranges,Australia",-41.1499965,147.0671858
787,"Conca+de+Barbera,Spain",41.44389565,1.188511332
788,"Monica+di+Sardegna,Italy",40.8049481,8.569909699
789,"Moscato+di+Noto,Italy",0,0
790,"Touraine+Mesland,France",47.5077338,1.1220406
791,"Napa-Monterey-Mendocino,US",0,0
792,"Clairette+de+Die+Methode+Dioise+Ancestrale,France",0,0
793,"California,US",36.7014631,-118.7559974
794,"Central+Coast,US",-33.3117096,151.3120675
795,"Cremant+de+Loire,France",0,0
796,"Napa-Sonoma,US",38.29501795,-122.4759997
797,"Terre+di+Chieti,Italy",0,0
798,"Premieres+Cotes+de+Bordeaux,France",0,0
799,"Francs+Cotes+de+Bordeaux,France",0,0
800,"Galluccio,Italy",41.352318,13.953717
801,"Hrvatsko+Primorje,Croatia",45.5305976,14.7033187
802,"Mendocino/Lake+Counties,US",0,0
803,"Vin+de+Pays+des+Coteaux+de+Murviel,France",0,0
804,"Aglianico+d'Irpinia,Italy",0,0
805,"Corinthia,Greece",37.96299085,22.73334237
806,"Langhe,Italy",44.0648317,7.7882552
807,"Veneto+Orientale,Italy",45.5154895,12.6765329
808,"Donauland,Austria",47.7095043,16.0211773
809,"Mendocino/Lake+Counties,US",0,0
810,"Montlouis-sur-Loire,France",47.3881023,0.8269289
811,"Prosecco+di+Valdobbiadene+Superiore,Italy",0,0
812,"Falanghina+del+Molise,Italy",0,0
813,"Conero+Riserva,Italy",0,0
814,"Southeastern+New+England,US",0,0
815,"Central+Coast,US",-33.3117096,151.3120675
816,"Pyrenees,Australia",-37.32798315,143.4240561
817,"Vin+de+Pays+des+Cotes+Catalanes,France",0,0
818,"Chapelle-Chambertin,France",47.21640375,4.970988372
819,"Mount+Athos,Greece",40.1584206,24.3272583
820,"Pavia,Italy",45.1860043,9.1546375
821,"San+Martino+della+Battaglia,Italy",45.4386066,10.5979325
822,"Crete,Greece",35.2788061,24.93428854
823,"Sforzato+di+Valtellina,Italy",0,0
824,"Falanghina+del+Beneventano,Italy",0,0
825,"Cotes+de+Thau,France",0,0
826,"Wurttemberg,Germany",52.1176879,11.638457
827,"Neuchatel,Switzerland",46.9895828,6.9292641
828,"Vin+de+Pays+de+la+Vallee+de+l'Aude,France",0,0
829,"Tavel,France",44.0119,4.69927
830,"Etna,Italy",37.7510251,14.9940321
831,"Terre+Siciliane,Italy",0,0
832,"Bekaa+Valley,Lebanon",33.6810179,35.84169882
833,"Pecharmant,France",48.8916709,2.2540698
834,"Central+Coast,US",-33.3117096,151.3120675
835,"Alto+Valle+del+Rio+Negro,Argentina",0,0
836,"Ankara,Turkey",39.9207456,32.8540905
837,"South+Styria,Austria",47.065556,15.4518867
838,"Bordeaux+Superieur,France",44.791815,-0.6577001
839,"Hilltops,Australia",-34.41561915,148.5634257
840,"Orange,Australia",-33.32924175,149.1081466
841,"Texas,US",31.8160381,-99.5120986
842,"Montepulciano+d'Abruzzo+Colline+Teramane,Italy",0,0
843,"Sagrada+Familia,Chile",-34.9990365,-71.3817116
844,"Montrachet,France",46.9455125,4.7384962
845,"Vin+de+Pays+de+la+Haute+Vallee+du+Gassac,France",0,0
846,"Santa+Barbara+County-Condrieu,US-France",0,0
847,"Castillon+Cotes+de+Bordeaux,France",0,0
848,"New+York+Other,US",0,0
849,"Slovenia,Slovenia",45.8133113,14.4808369
850,"Casablanca+&+Leyda+Valleys,Chile",33.5950627,-7.6187768
851,"Saint-Bris,France",46.2331191,5.3544518
852,"Wairau+Valley,New+Zealand",-41.5635411,173.5314071
853,"Chateaumeillant,France",46.5608687,2.1962014
854,"Central+Coast,US",-33.3117096,151.3120675
855,"Ribera+del+Guadiana,Spain",0,0
856,"Judean+Hills,Israel",0,0
857,"Alicante,Spain",38.353738,-0.4901846
858,"Sierra+Foothills,US",33.58458185,-111.8089768
859,"Grand+River+Valley,US",43.6881371,-89.0494254
860,"Friuli+Colli+Orientali,Italy",0,0
861,"Forli,Italy",44.2226017,12.0409384
862,"Central+Coast,US",-33.3117096,151.3120675
863,"Obidos,Portugal",39.3680634,-9.187304366
864,"Peza,Greece",35.2182804,25.1921764
865,"Mirdite,Albania",41.85941065,20.01813367
866,"Bandol,France",43.1357717,5.7523647
867,"Cremant+d'Alsace,France",0,0
868,"Ribera+del+Duero,Spain",41.6757169,-3.715791489
869,"Canon-Fronsac,France",0,0
870,"Barbera+del+Monferrato,Italy",0,0
871,"Colchagua+Costa,Chile",0,0
872,"Lirac,France",44.0372,4.69136
873,"Northern+Spain,Spain",10.691262,-61.55434593
874,"Custoza+Superiore,Italy",38.2217528,15.6344488
875,"Vin+de+Pays+des+Coteaux+de+L'Ardeche,France",0,0
876,"Sonoma,US",38.5110803,-122.8473388
877,"Franciacorta,Italy",45.61244435,10.05328133
878,"Central+Coast,US",-33.3117096,151.3120675
879,"Moulin-a-Vent,France",46.2029456,4.727418126
880,"Columbia+Valley,US",34.0007493,-81.0343313
881,"Imathia,Greece",40.51703795,22.18071973
882,"Pla+de+Bages,Spain",41.77857805,1.890343429
883,"Haut-Judee,Israel",0,0
884,"Brazil,Brazil",-10.3333333,-53.2
885,"Serra+do+Sudeste,Brazil",0,0
886,"Rhein-Mosel,Germany",50.2543216,7.46444098
887,"California+Other,US",39.3565832,-120.1821578
888,"Marlborough+&+Hawkes+Bay,New+Zealand",-41.47447475,173.8330263
889,"Saint-Amour,France",46.4358751,5.3421832
890,"Cortona,Italy",43.2752976,11.9850623
891,"Ladoix,France",47.0668663,4.8872591
892,"Alta+Valle+della+Greve,Italy",0,0
893,"Cotes+du+Tarn,France",44.2365873,1.7689625
894,"Cote+de+Nuits-Villages,France",0,0
895,"Verdicchio+dei+Castelli+di+Jesi,Italy",0,0
896,"Tuscany,Italy",43.4586541,11.1389204
897,"North+Coast,US",-23.0053563,-43.3297952
898,"Central+Coast,US",-33.3117096,151.3120675
899,"Washington+Other,US",37.751428,-87.139672
900,"California+Other,US",39.3565832,-120.1821578
901,"Monti+Lessini,Italy",45.6942819,10.9755218
902,"Savuto,Italy",39.0647986,16.1649047
903,"Moselle+VDQS,France",0,0
904,"Anderson+Valley,US",38.198077,-95.3067461
905,"Bolgheri,Italy",43.2340065,10.6179334
906,"Colli+Bolognesi,Italy",43.0690597,13.1492771
907,"Nemea,Greece",37.82133,22.6622062
908,"Algarve,Portugal",37.2454248,-8.150925273
909,"Sangiovese+di+Romagna,Italy",44.1013323,11.9623423
910,"Coteaux+du+Layon+Saint+Aubin,France",0,0
911,"Oltrepo+Pavese,Italy",0,0
912,"Vin+Santo+del+Chianti+Classico,Italy",0,0
913,"Monemvasia,Greece",36.688463,23.0516857
914,"Geographe,Australia",-33.64019,115.3748
915,"Coteaux+du+Languedoc,France",43.2069251,3.0770387
916,"Vin+de+Table+Francais,France",0,0
917,"Pommard,France",47.0087919,4.7962295
918,"Tunisia,Tunisia",33.8439408,9.400138
919,"Mendocino/Lake+Counties,US",0,0
920,"Landes,France",44.00996945,-0.643387235
921,"Currency+Creek,Australia",-33.5146115,150.8666465
922,"Beiras,Portugal",40.81075705,-7.492524332
923,"Limari+Valley,Chile",-30.6382918,-71.283904
924,"Navarra,Spain",42.61254875,-1.830787683
925,"Darlington+Point,Australia",-34.5659957,146.0002828
926,"Adelaide+Plains,Australia",-34.51260725,138.4438283
927,"Maranges,France",46.9110621,4.655791
928,"Pays+de+Loire,France",47.6594864,-0.8186143
929,"McDowell+Valley,US",37.3660757,-81.6478197
930,"Brouilly,France",46.0672017,4.5998139
931,"Cerasuolo+di+Vittoria,Italy",36.9727671,14.5519145
932,"Clare+Valley,Australia",-33.8333914,138.6120042
933,"Minervois,France",43.3126281,2.6608686
934,"Grand+Valley,US",41.7211706,-79.5375503
935,"Central+Valley,US",38,-121.4
936,"Cremant+de+Bordeaux,France",0,0
937,"California+Other,US",39.3565832,-120.1821578
938,"Sopron,Hungary",47.6803063,16.5983457
939,"Zitsa,Greece",39.7525193,20.6490235
940,"Armenia,Armenia",40.7696272,44.6736646
941,"Columbia+Valley,US",34.0007493,-81.0343313
942,"Italy,Italy",42.6384261,12.674297
943,"Istria,Croatia",45.18937235,13.91819614
944,"Friuli+Aquileia,Italy",46.05472,13.251754
945,"Arcadia,Greece",37.4293371,22.40733317
946,"Colli+di+Faenza,Italy",0,0
947,"Vin+de+Pays+des+Cotes+de+Gascogne,France",0,0
948,"Strathbogie+Ranges-Mornington+Peninsula,Australia",0,0
949,"Colli+di+Rimini,Italy",44.0968837,12.52303
950,"Cremant+de+Die,France",48.24385095,7.39187905
951,"Barbaresco,Italy",44.7254469,8.0806959
952,"Marlborough,New+Zealand",-41.47447475,173.8330263
953,"Lake+Michigan+Shore,US",42.764927,-83.497657
954,"Terra+degli+Osci,Italy",0,0
955,"Lacryma+Christi+del+Vesuvio,Italy",0,0
956,"Dogliani,Italy",44.5307822,7.9472329
957,"Verdicchio+dei+Castelli+di+Jesi+Classico+Superiore,Italy",0,0
958,"Puente+Alto,Chile",-33.6095279,-70.5754736
959,"Central+Greece,Greece",37.6351274,22.7287475
960,"Colline+Lucchesi,Italy",0,0
961,"Central+Coast,US",-33.3117096,151.3120675
962,"Maipo+Valley-Colchagua+Valley,Chile",0,0
963,"Cabardes,France",43.3488334,2.3973401
964,"Aleatico+dell'Elba,Italy",0,0
965,"Listrac,France",45.0736769,-0.7905774
966,"Opuntia+Locris,Greece",0,0
967,"Madiran,France",43.5502022,-0.0580853
968,"Clarendon,Australia",-41.62808,147.28384
969,"Fronsac,France",44.9229141,-0.2740925
970,"Offida+Pecorino,Italy",0,0
971,"Villany,Hungary",45.8697644,18.4555208
972,"Valpolicella+Ripasso+Valpantena,Italy",0,0
973,"Asprinio+di+Aversa,Italy",0,0
974,"Sierra+Foothills,US",33.58458185,-111.8089768
975,"Simonsberg-Paarl,South+Africa",0,0
976,"Biferno+Rosso,Italy",0,0
977,"Montello+e+Colli+Asolani,Italy",0,0
978,"Chianti+Montalbano,Italy",0,0
979,"Alentejo,Portugal",38.49104545,-8.027342986
980,"Galatina,Italy",40.1742781,18.1678388
981,"Bourgogne+Aligote,France",0,0
982,"Grands-Echezeaux,France",47.1713647,4.9538051
983,"California+Other,US",39.3565832,-120.1821578
984,"Cotes+de+Montravel,France",0,0
985,"Vino+de+la+Tierra+Ribera+del+Jiloca,Spain",0,0
986,"Alto+Adige,Italy",46.65594215,11.22963726
987,"Pomerol,France",44.9311234,-0.1999904
988,"Contea+di+Sclafani,Italy",0,0
989,"Alcamo,Italy",37.9766497,12.9626735
990,"Rasteau,France",44.2298319,4.9856444
991,"Gavi+di+Gavi,Italy",44.687649,8.809353
992,"Primorska,Slovenia",46.06098335,14.52631634
993,"Gaillac+Doux,France",0,0
994,"Corton+Les+Renardes,France",0,0
995,"Pisatis,Greece",0,0
996,"Blanc+Fume+de+Pouilly,France",0,0
997,"Sebes,Romania",45.9591058,23.5699265
998,"Napa-Sonoma,US",38.29501795,-122.4759997
999,"Monferrato+Bianco,Italy",45.0881742,8.0793353
1000,"Columbia+Valley,US",34.0007493,-81.0343313
1001,"Burgenland,Austria",47.5000001,16.4166666
1002,"Shomron,Israel",31.7818405,35.2145346
1003,"Middleburg,US",38.9690189,-77.7355056
1004,"Cotes+du+Roussillon,France",45.3709391,4.812891133
1005,"Bourgogne+Epineuil,France",47.8742306,3.9810488
1006,"Zenata,Morocco",33.60377995,-7.382675697
1007,"South+Coast,US",32.7469891,-117.2516124
1008,"Augusta,US",33.4709714,-81.9748429
1009,"Alghero,Italy",40.5600205,8.3151473
1010,"Lake+Erie+North+Shore,Canada",0,0
1011,"Vin+de+Pays+de+L'Aude,France",0,0
1012,"Central+Coast,US",-33.3117096,151.3120675
1013,"Savennieres-Roche-Aux-Moines,France",0,0
1014,"Chianti+Colli+Pisani,Italy",0,0
1015,"Kras,Slovenia",45.7747824,14.21266359
1016,"Zupa,Serbia",42.9743423,20.3678711
1017,"Quarts+de+Chaume,France",0,0
1018,"Famatina+Valley,Argentina",-28.9250648,-67.519583
1019,"Controguerra,Italy",42.8557157,13.8193355
1020,"Barossa-Langhorne+Creek,Australia",0,0
1021,"California+Other,US",39.3565832,-120.1821578
1022,"Corton+Les+Lolieres,France",0,0
1023,"Central+Otago-Marlborough,New+Zealand",0,0
1024,"Mercurey,France",46.8364292,4.716996
1025,"Cotes+de+Gascogne,France",0,0
1026,"Vermentino+di+Sardegna,Italy",40.7752504,9.1556518
1027,"Requinoa,Chile",-34.2848171,-70.8174816
1028,"Clare+Valley-Coonawarra,Australia",0,0
1029,"Ceres+Plateau,South+Africa",0,0
1030,"Idaho,US",43.6447642,-114.0154071
1031,"Napa,US",38.2971367,-122.2855293
1032,"Old+Mission+Peninsula,US",44.9576705,-85.5155287
1033,"San+Antonio,Chile",-33.5808615,-71.6132377
1034,"Montefalco+Rosso,Italy",0,0
1035,"Vin+de+Pays+du+Val+de+Cesse,France",0,0
1036,"Vin+Santo+del+Chianti,Italy",0,0
1037,"Cyprus,Cyprus",34.9823018,33.1451285
1038,"Riverland,Australia",-37.818726,144.96849
1039,"Panciu,Romania",45.9070912,27.0898993
1040,"Saussignac,France",44.8014957,0.3264929
1041,"Argentina,Argentina",-34.9964963,-64.9672817
1042,"Central+Coast,US",-33.3117096,151.3120675
1043,"Prosecco+Superiore+di+Cartizze,Italy",0,0
1044,"Greco+di+Tufo,Italy",0,0
1045,"Muscat+of+Patras,Greece",0,0
1046,"Comte+Toulosan,France",0,0
1047,"Apulia,Italy",40.9842539,16.6210027
1048,"Alpine+Valleys,Australia",-36.2199595,148.1235462
1049,"Spanish+Islands,Spain",28.1188894,-15.42985
1050,"Pago+de+Arinzano,Spain",0,0
1051,"Languedoc,France",48.116066,-1.7055897
1052,"Chablis,France",47.8152073,3.8001657
1053,"Premieres+Cotes+de+Blaye,France",0,0
1054,"Israel,Israel",30.8760272,35.0015196
1055,"Patrimonio,France",42.7007387,9.3645244
1056,"Touraine,France",45.171258,5.766319857
1057,"Clairette+de+Die,France",49.4643175,1.0421717
1058,"Terrazze+Retiche+di+Sondrio,Italy",0,0
1059,"California+Other,US",39.3565832,-120.1821578
1060,"Maremma+Toscana,Italy",43.7697164,11.2612205
1061,"Cotes+de+Provence+Sainte-Victoire,France",0,0
1062,"Condrieu,France",45.4624294,4.7676199
1063,"Terra+Alta,Spain",41.0273523,0.410599738
1064,"Listrac-Medoc,France",45.0736769,-0.7905774
1065,"Bourgogne+Hautes+Cotes+de+Beaune,France",0,0
1066,"Recioto+della+Valpolicella,Italy",45.5264025,10.9410042
1067,"Ardeche,France",44.815194,4.39865247
1068,"Savennieres-Coulee+de+Serrant,France",0,0
1069,"Charentais,France",47.2725916,0.8223418
1070,"Ribatejo,Portugal",38.99143565,-8.986650214
1071,"Taburno,Italy",41.131518,14.645935
1072,"Loncomilla+Valley,Chile",-28.5256367,-70.869904
1073,"Arizona,US",34.395342,-111.7632755
1074,"Gard,France",43.95995,4.297637002
1075,"Potter+Valley,US",39.3221089,-123.113059
1076,"Offida+Rosso,Italy",0,0
1077,"Saumur-Champigny,France",47.2345894,-0.0003999
1078,"Amarone+della+Valpolicella+Valpantena,Italy",0,0
1079,"Rosso+del+Salento,Italy",0,0
1080,"California+Other,US",39.3565832,-120.1821578
1081,"Bourgogne+Vezelay,France",47.4645305,3.7443434
1082,"Columbia+Valley,US",34.0007493,-81.0343313
1083,"Saint-Veran,France",44.6993395,6.8687131
1084,"Cremant+de+Bourgogne,France",0,0
1085,"Saint-Aubin,France",49.5114,3.18881
1086,"Muscadet+Sevre+et+Maine,France",0,0
1087,"Minervois+La+Liviniere,France",43.36165855,2.611803739
1088,"Marchigue,Chile",-34.400088,-71.6182815
1089,"Muscadet+Cotes+de+Grandlieu,France",0,0
1090,"Chianti+Colli+Aretini,Italy",0,0
1091,"Vino+Tierra+de+Leon,Spain",0,0
1092,"North+Coast,US",-23.0053563,-43.3297952
1093,"Vin+de+Pays+de+Hauterive,France",0,0
1094,"Napa,US",38.2971367,-122.2855293
1095,"Corton,France",46.9898792,4.8750771
1096,"France,France",46.603354,1.8883335
1097,"Idaho,US",43.6447642,-114.0154071
1098,"Romagna,Italy",44.13497265,11.8473191
1099,"Shenandoah+Valley,US",39.6725241,-75.5911629
1100,"Wairarapa,New+Zealand",-41.23617985,175.2196902
1101,"Pomino,Italy",45.7631842,9.4718307
1102,"South+Australia,Australia",-30.5343665,135.6301212
1103,"Cabernet+de+Saumur,France",47.238395,-0.1194553
1104,"Hawaii,US",21.2160437,-157.975203
1105,"Torres+Vedras,Portugal",39.0930856,-9.260741
1106,"Targovishte,Bulgaria",43.251196,26.5727944
1107,"Mendocino+County,US",39.3176491,-123.4126399
1108,"Southern+Oregon,US",42.18664255,-122.6968305
1109,"Lambrusco+Reggiano,Italy",0,0
1110,"Black+Sea+Coastal,Bulgaria",0,0
1111,"Napa,US",38.2971367,-122.2855293
1112,"Cotes+du+Luberon,France",0,0
1113,"Sonoma,US",38.5110803,-122.8473388
1114,"Southern+Oregon,US",42.18664255,-122.6968305
1115,"Bergerac+Sec,France",44.8534568,0.487531
1116,"Marsala,Italy",37.7979221,12.4342091
1117,"Fitou,France",42.8946178,2.9825507
1118,"Malleco,Chile",-37.7958476,-72.6515579
1119,"Campanha,Brazil",-21.8361108,-45.401986
1120,"Moscatel+do+Douro,Portugal",0,0
1121,"Samos,Greece",37.7579286,26.9746631
1122,"Ghemme,Italy",45.5983455,8.4209035
1123,"Cahul,Moldova",45.9082907,28.1943686
1124,"Thraki,Greece",40.85183135,25.81223552
1125,"Sierra+Foothills,US",33.58458185,-111.8089768
1126,"Aigialias+Slopes,Greece",0,0
1127,"Ticino,Switzerland",46.3356506,8.753706
1128,"Gutturnio+Classico+Superiore,Italy",0,0
1129,"Bellarine+Peninsula,Australia",-38.1646794,144.3675677
1130,"Pauillac,France",45.1995626,-0.7484994
1131,"Naoussa,Greece",40.6306023,22.0695972
1132,"Paarl,South+Africa",-33.741667,18.975
1133,"Mendocino/Lake+Counties,US",0,0
1134,"Wrattonbully,Australia",-37.1677831,140.9458691
1135,"Recioto+di+Soave+Classico,Italy",0,0
1136,"Douro+Superior,Portugal",40.92417855,-8.544798225
1137,"Cornas,France",44.963521,4.847545
1138,"Mendocino/Lake+Counties,US",0,0
1139,"Adelaide,Australia",-34.9281805,138.5999312
1140,"Ventoux,France",45.014606,2.0160796
1141,"North+Coast,US",-23.0053563,-43.3297952
1142,"Val+di+Cornia+Suvereto,Italy",43.0611964,10.6636293
1143,"Ahr,Germany",50.4712499,6.9486175
1144,"Stajerska,Slovenia",46.368163,14.56734
1145,"Markopoulo,Greece",37.8828919,23.932256
1146,"Vanju+Mare,Romania",44.4250326,22.8712672
1147,"Osterreichischer+Perlwein,Austria",0,0
1148,"Cotes+de+Frontonnais,France",0,0
1149,"Epanomi,Greece",40.4280217,22.928308
1150,"Vale+Trentino,Brazil",-21.1849387,-46.9857309
1151,"Bordeaux+Cotes+de+Francs,France",0,0
1152,"North+Coast,US",-23.0053563,-43.3297952
1153,"Meursault-Blagny,France",0,0
1154,"Prince+Edward+County,Canada",43.9869336,-77.07080708
1155,"Olevano+Romano,Italy",41.860621,13.03309
1156,"Saint-Emilion,France",44.8931452,-0.1560662
1157,"Monticello,US",38.01032755,-78.4523439
1158,"Echezeaux,France",47.1668909,4.9816856
1159,"Mentrida,Spain",40.2379032,-4.1945535
1160,"Neusiedlersee-Hugelland,Austria",0,0
1161,"Estremadura,Portugal",39.5493629,-8.9798683
1162,"Pouilly-Vinzelles,France",46.279805,4.7816133
1163,"Bourgogne+Gamay,France",46.9570394,4.7220264
1164,"Macon-Bussieres,France",46.3338446,4.692127
1165,"Yarra+Valley-Heathcote,Australia",0,0
1166,"Cote+de+Beaune-Villages,France",0,0
1167,"Vin+de+Pays+du+Comte+Tolosan,France",0,0
1168,"Lugana+Superiore,Italy",45.4439611,10.6236036
1169,"Beaune,France",47.0239064,4.8380426
1170,"Saint-Romain,France",45.4889832,3.8949653
1171,"Anjou,France",46.564187,5.3193257
1172,"Central+Coast,US",-33.3117096,151.3120675
1173,"Macon-Pierreclos,France",46.3338446,4.692127
1174,"Napa,US",38.2971367,-122.2855293
1175,"Pacherenc+du+Vic+Bilh,France",0,0
1176,"Veronese,Italy",45.1123339,7.6597528
1177,"Montecucco,Italy",45.6256837,10.5596436
1178,"Coteaux+du+Vendomois,France",0,0
1179,"Overberg,South+Africa",-33.9097432,18.8485064
1180,"Languedoc-Roussillon,France",43.65420305,3.67466994
1181,"Columbia+Valley,US",34.0007493,-81.0343313
1182,"Taurasi,Italy",41.008718,14.958644
1183,"Tejo,Portugal",38.7372778,-9.1305819
1184,"Utiel-Requena,Spain",39.5680838,-1.2051778
1185,"Valle+de+Guadalupe,Mexico",21.0426533,-102.6798646
1186,"Valtellina+Superiore,Italy",46.1580776,10.0411141
1187,"Saint-Mont,France",43.6522222,-0.1491667
1188,"Marsannay,France",47.2799577,5.0064695
1189,"Chianti+Superiore,Italy",0,0
1190,"Macon-Loche,France",46.2829122,4.7788492
1191,"Valpolicella+Ripasso+Classico,Italy",0,0
1192,"Tradouw,South+Africa",-33.9756043,20.7018685
1193,"Bot+River,South+Africa",-34.2136556,19.2113921
1194,"Frascati,Italy",41.8082452,12.6803684
1195,"North+Coast,US",-23.0053563,-43.3297952
1196,"Southern+Flinders+Ranges,Australia",0,0
1197,"Val+di+Neto,Italy",39.18473465,17.1070345
1198,"Osterreichischer+Sekt,Austria",0,0
1199,"Central+Valley,US",38,-121.4
1200,"Emporda,Spain",42.28984785,2.97545249
1201,"Barco+Reale+di+Carmignano,Italy",43.8139111,11.019155
1202,"Coteaux+du+Layon+La+Faye,France",47.2929454,-0.5232988
1203,"Sierra+Foothills,US",33.58458185,-111.8089768
1204,"Coonawarra,Australia",-12.4311074,130.9145236
1205,"Chiroubles,France",46.1811005,4.6652111
1206,"Morgon,France",45.9844168,4.6618268
1207,"Gigondas,France",44.1641127,5.0051053
1208,"Pouilly-sur-Loire,France",47.281542,2.9583419
1209,"Leelanau+Peninsula,US",0,0
1210,"Puisseguin+Saint-Emilion,France",0,0
1211,"Valais,Switzerland",46.2303063,7.6605757
1212,"Alto+Adige+Valle+Isarco,Italy",46.7212183,11.6536661
1213,"Central+Coast,US",-33.3117096,151.3120675
1214,"Virginia's+Eastern+Shore,US",0,0
1215,"Savoie,France",45.49489515,6.384660381
1216,"Peljesac,Croatia",42.9045622,17.47516868
1217,"Lombardy,Italy",45.6209,9.768893
1218,"Terasele+Dunarii,Romania",0,0
1219,"Cape+Peninsula,South+Africa",-34.2148808,18.4109938
1220,"Campi+Flegrei,Italy",40.8274575,14.1402297
1221,"Vin+de+Pays+du+Jardin+de+la+France,France",0,0
1222,"San+Antonio+de+las+Minas+Valley,Mexico",32.6181234,-115.5690195
1223,"Napa,US",38.2971367,-122.2855293
1224,"Dolcetto+d'Alba,Italy",0,0
1225,"Sierra+Foothills,US",33.58458185,-111.8089768
1226,"Red+Hills+Lake+County,US",31.473003,-93.831742
1227,"New+South+Wales,Australia",-31.8759835,147.2869493
1228,"Buin,Chile",-33.7319741,-70.7419619
1229,"Latricieres-Chambertin,France",47.20799895,4.963889695
1230,"Central+Valley,US",38,-121.4
1231,"Geelong,Australia",-38.1492813,144.3598269
1232,"Coastal+Region,South+Africa",0,0
1233,"Fruska+Gora,Serbia",44.8420413,20.4135417
1234,"Colli+Trevigiani,Italy",0,0
1235,"Barbera+del+Monferrato+Superiore,Italy",0,0
1236,"Cotes+du+Jura,France",46.6585868,6.0869852
1237,"Roccamonfina,Italy",41.288217,13.983119
1238,"Tras-os-Montes,Portugal",41.59298595,-6.728826923
1239,"Gambellara+Classico,Italy",0,0
1240,"Teroldego+Rotaliano,Italy",0,0
1241,"Sterea+Ellada,Greece",39.0440337,22.42196732
1242,"Mendoza,Argentina",-32.8897294,-68.8442956
1243,"Mendocino,US",39.3176491,-123.4126399
1244,"Colli+della+Toscana+Centrale,Italy",0,0
1245,"Lutzville+Valley,South+Africa",-31.5591667,18.3438889
1246,"California+Other,US",39.3565832,-120.1821578
1247,"Coteaux+Champenois,France",0,0
1248,"Malaga,Spain",36.7213028,-4.4216366
1249,"South+Coast,US",32.7469891,-117.2516124
1250,"Barossa+Valley-Clare+Valley,Australia",0,0
1251,"Sant'+Agata+dei+Goti,Italy",0,0
1252,"Ucles,Spain",39.9804328,-2.8615799
1253,"Hemel+en+Aarde,South+Africa",-34.4115921,19.20617768
1254,"Korcula,Croatia",42.9437813,16.91347631
1255,"Agioritikos,Greece",0,0
1256,"Asti,Italy",44.900542,8.2068876
1257,"Vin+de+Pays+d'Oc,France",0,0
1258,"Vienna,Austria",48.2083537,16.3725042
1259,"Vin+de+Pays+des+Portes+de+Mediterranee,France",0,0
1260,"Colline+Pescaresi,Italy",0,0
1261,"Leyda+Valley-Maipo+Valley,Chile",0,0
1262,"Sonoma,US",38.5110803,-122.8473388
1263,"Charmes-Chambertin,France",47.2069405,4.967493302
1264,"Chateau-Chalon,France",46.7547194,5.6269716
1265,"Great+Southern,Australia",-37.82033745,144.9846468
1266,"Jerez,Spain",36.6816936,-6.1377402
1267,"Irpinia,Italy",41.06739675,15.10117177
1268,"Mendocino/Lake+Counties,US",0,0
1269,"Valdobbiadene+Prosecco+Superiore,Italy",0,0
1270,"Montilla-Moriles,Spain",37.4223981,-6.141708
1271,"Sierra+Foothills,US",33.58458185,-111.8089768
1272,"Vin+de+Pays+des+Maures,France",0,0
1273,"Bourgogne+Cotes+d'Auxerre,France",0,0
1274,"Manzanilla-Sanlucar+de+Barrameda,Spain",36.7890461,-6.3462744
1275,"Oregon+Other,US",45.5625404,-122.6665296
1276,"Conegliano+Valdobbiadene+Prosecco+Superiore,Italy",0,0
1277,"England,England",48.428501,12.056571
1278,"Cotes+du+Marmandais,France",0,0
1279,"Mendoza+Province,Argentina",-32.9400667,-60.7031706
1280,"Vernaccia+di+San+Gimignano,Italy",0,0
1281,"Southern+Oregon,US",42.18664255,-122.6968305
1282,"Mosel,Germany",49.7261485,6.6205705
1283,"Mosel-Saar-Ruwer,Germany",0,0
1284,"Awatere+Valley,New+Zealand",-41.8529115,173.6964424
1285,"Terras+da+Beira,Portugal",0,0
1286,"Macon,France",46.3036683,4.8322266
1287,"Beaumes-de-Venise,France",44.1218644,5.0301694
1288,"Willamette+Valley,US",45.3442868,-122.6670374
1289,"Sierra+Foothills,US",33.58458185,-111.8089768
1290,"Lalande+de+Pomerol,France",44.9560756,-0.2104434
1291,"Civitella+d'Agliano,Italy",42.6053622,12.1876584
1292,"Vire-Clesse,France",46.44937835,4.843668458
1293,"Dogliani+Superiore,Italy",0,0
1294,"British+Columbia,Canada",55.001251,-125.002441
1295,"Musigny,France",47.163835,4.5172082
1296,"Colli+Pesaresi,Italy",0,0
1297,"Dolcetto+d'Alba+Superiore,Italy",0,0
1298,"Prosecco+di+Conegliano,Italy",0,0
1299,"Vinho+Verde,Portugal",41.0674998,-8.237269437
1300,"Pouilly-Fuisse,France",0,0
1301,"Coteaux+Varois+en+Provence,France",0,0
1302,"Central+Otago,New+Zealand",-45.1299859,169.5248818
1303,"Rheingau,Germany",50.1241483,8.0912155
1304,"Eger,Hungary",47.8989887,20.3743665
1305,"Batard-Montrachet,France",46.9451362,4.7404005
1306,"Valdadige,Italy",45.6582406,10.9025042
1307,"Anjou+Villages,France",47.51815895,0.128582332
1308,"Colli+di+Conegliano,Italy",45.8870267,12.2906221
1309,"Macon-Villages,France",46.3584804,4.832463
1310,"Finger+Lakes,US",39.6214952,-84.198677
1311,"Virginia,US",37.1232245,-78.4927721
1312,"Vinho+Espumante+de+Qualidade,Portugal",0,0
1313,"Bendigo,Australia",-36.7588767,144.2825931
1314,"Colli+Piacentini,Italy",0,0
1315,"Vin+de+Pays+de+L'Herault,France",0,0
1316,"Ciro+Classico,Italy",0,0
1317,"St.+David's+Bench,Canada",0,0
1318,"Central+Valley,US",38,-121.4
1319,"Macon-Peronne,France",46.4385322,4.8096295
1320,"Podunavlje,Croatia",45.629289,18.8138603
1321,"North+Coast,US",-23.0053563,-43.3297952
1322,"Jiri+Valley,South+Korea",0,0
1323,"Givry,France",46.7831191,4.7432564
1324,"Korinthia,Greece",37.96299085,22.73334237
1325,"Urla-Thrace,Turkey",0,0
1326,"Catamarca,Argentina",-28.4688963,-65.7790753
1327,"Vino+de+la+Tierra+de+Zamora,Spain",0,0
1328,"Central+Coast,US",-33.3117096,151.3120675
1329,"South+Coast,US",32.7469891,-117.2516124
1330,"Wagram-Donauland,Austria",0,0
1331,"Anjou+Villages+Brissac,France",0,0
1332,"Rosso+di+Toscana,Italy",43.0573443,11.60890845
1333,"Prosecco+Treviso,Italy",45.9070215,12.0918342
1334,"Vin+de+Pays+Cite+de+Carcassonne,France",0,0
1335,"Vista+Flores,Argentina",-33.6509493,-69.1555479
1336,"California+Other,US",39.3565832,-120.1821578
1337,"Colli+Euganei,Italy",45.30235545,11.80507605
1338,"Vinho+Licoroso,Portugal",0,0
1339,"Chisinau+County,Moldova",47.0244707,28.8322534
1340,"Texoma,US",33.95505255,-96.95711724
1341,"Willamette+Valley,US",45.3442868,-122.6670374
1342,"Gisborne,New+Zealand",-38.661326,178.0206487
1343,"South+Coast,US",32.7469891,-117.2516124
1344,"Molina,Chile",-35.1139703,-71.2799798
1345,"Napa,US",38.2971367,-122.2855293
1346,"North+Coast,US",-23.0053563,-43.3297952
1347,"Bianco+di+Custoza,Italy",0,0
1348,"Central+Coast,US",-33.3117096,151.3120675
1349,"South+Australia,Australia",-30.5343665,135.6301212
1350,"Soave,Italy",45.4202303,11.247722
1351,"Barbera+d'Alba+Superiore,Italy",0,0
1352,"Morey-Saint-Denis,France",47.1955052,4.9623167
1353,"North+Coast,US",-23.0053563,-43.3297952
1354,"Sierra+de+Salamanca,Spain",40.6065982,-6.0387627
1355,"Alella,Spain",41.4952867,2.2942758
1356,"Moselle+Luxembourgeoise,Luxembourg",49.6728328,6.4379836
1357,"Mendocino/Lake+Counties,US",0,0
1358,"Constantia,South+Africa",-34.0283333,18.4155556
1359,"Lithuania,Lithuania",55.3500003,23.7499997
1360,"Patras,Greece",38.246242,21.7350847
1361,"California+Other,US",39.3565832,-120.1821578
1362,"Brunello+di+Montalcino,Italy",43.0774282,11.4928801
1363,"Spain,Spain",39.3262345,-4.8380649
1364,"Wiener+Gemischter+Satz,Austria",0,0
1365,"Columbia+Valley,US",34.0007493,-81.0343313
1366,"Vinos+de+Madrid,Spain",40.4030526,-3.6756934
1367,"Erbaluce+di+Caluso,Italy",0,0
1368,"Romanee-St.-Vivant,France",47.1623246,4.95287345
1369,"La+Grande+Rue,France",46.2243172,-0.1992199
1370,"Danube+Hills+Valley,Bulgaria",0,0
1371,"McLaren+Vale-Langhorne+Creek,Australia",0,0
1372,"Sauternes,France",44.5327805,-0.341386
1373,"Cadillac,France",44.6360817,-0.3173533
1374,"Corton-Charlemagne,France",47.07374645,4.852580676
1375,"Central+Valley,US",38,-121.4
1376,"Vino+de+la+Tierra+Contraviesa+Alpujarra,Spain",0,0
1377,"Elim,South+Africa",-34.592193,19.759556
1378,"Table+wine,Portugal",0,0
1379,"Central+Valley,US",38,-121.4
1380,"Cotes+Catalanes,France",0,0
1381,"Carinena,Spain",41.3377248,-1.2248826
1382,"South+Coast,US",32.7469891,-117.2516124
1383,"Montepulciano+d'Abruzzo+Cerasuolo,Italy",0,0
1384,"San+Vicente,Mexico",19.588056,-98.5975
1385,"Weinland+Osterreich,Austria",0,0
1386,"Terras+do+Sado,Portugal",0,0
1387,"Santa+Catarina,Brazil",-27.0628367,-51.114965
1388,"Grand+Roussillon,France",43.9024768,5.2920876
1389,"Okanagan+Valley,Canada",50.37476565,-118.9638465
1390,"Perigord,France",45.5449404,1.0413194
1391,"Ribatejano,Portugal",0,0
1392,"Coteaux+d'Ancenis,France",47.4618006,-1.180888461
1393,"Mendocino/Lake+Counties,US",0,0
1394,"Steiermark,Austria",47.2500001,15.1666665
1395,"Lambrusco+Grasparossa+di+Castelvetro,Italy",0,0
1396,"Elazig-Diyarbakir,Turkey",37.9986435,40.1261423
1397,"Bienvenues+Batard-Montrachet,France",46.9457247,4.742291
1398,"Ohiti+Valley,New+Zealand",-39.5994033,176.711276
1399,"Viile+Carasului,Romania",0,0
1400,"Vin+de+France,France",49.0527062,4.8646474
1401,"Columbia+Valley,US",34.0007493,-81.0343313
1402,"Madrid,Spain",40.4167047,-3.7035825
1403,"Limnos,Greece",39.9088688,25.14996079
1404,"Montefalco,Italy",42.8918739,12.6500673
1405,"North+Island,New+Zealand",-38.00353045,175.9578526
1406,"Bourgogne+Grand+Ordinaire,France",0,0
1407,"Salta,Argentina",-25.1076701,-64.3494964
1408,"Roero+Arneis,Italy",0,0
1409,"Terre+di+Franciacorta,Italy",45.59955195,10.10668576
1410,"Vino+de+la+Tierra+Ribera+del+Gallego-Cinco+Villas,Spain",0,0
1411,"Macon-Mancey,France",0,0
1412,"Peninsula+de+Setubal,Portugal",38.6272781,-8.929688654
1413,"Southern+Oregon,US",42.18664255,-122.6968305
1414,"Niagara+Peninsula,Canada",43.0326295,-79.1060829
1415,"Portuguese+Table+Wine,Portugal",0,0
1416,"Aegean,Turkey",38.0118018,28.50122132
1417,"Leithaberg,Austria",47.88822,16.5810037
1418,"Chambertin,France",47.3669664,4.9988007
1419,"Isle+St.+George,US",41.7217149,-82.8201872
1420,"Carema,Italy",45.5833024,7.8104064
1421,"Cappadocia,Turkey",38.646806,34.8491554
1422,"North+Coast,US",-23.0053563,-43.3297952
1423,"Oregon+Other,US",45.5625404,-122.6665296
1424,"Thracian+Valley,Bulgaria",43.7451394,26.7662326
1425,"Rueda,Spain",41.4129785,-4.9597533
1426,"Vino+de+la+Tierra+de+Castilla,Spain",0,0
1427,"Peloponnese,Greece",37.2528536,22.2326024
1428,"Corton+Greves,France",0,0
1429,"Mudgee,Australia",-32.5980702,149.5886383
1430,"Riverina,Australia",-37.7086031,144.5464988
1431,"Viile+Timis,Romania",45.8002684,21.2920014
1432,"Colline+Teramane,Italy",0,0
1433,"Lake+Skadar+Valley,Montenegro",42.1955357,19.29159022
1434,"Columbia+Valley,US",34.0007493,-81.0343313
1435,"Torgiano+Rosso+Riserva,Italy",0,0
1436,"Soave+Superiore,Italy",44.5000737,8.903381535
1437,"Monbazillac,France",44.795,0.4925
1438,"Aminga+Valley,Argentina",-28.8476607,-66.9304252
1439,"Recioto+della+Valpolicella+Valpantena,Italy",0,0
1440,"Moscato+di+Pantelleria,Italy",0,0
1441,"Nahe,Germany",49.7874798,7.4869735
1442,"Prosecco+di+Conegliano+e+Valdobbiadene,Italy",0,0
1443,"Colli+Perugini,Italy",0,0
1444,"Tulbagh,South+Africa",-33.285059,19.140667
1445,"Recioto+di+Soave,Italy",0,0
1446,"Dealurile+Munteniei,Romania",0,0
1447,"Sonoma,US",38.5110803,-122.8473388
1448,"California+Other,US",39.3565832,-120.1821578
1449,"Catalanesca+del+Monte+Somma,Italy",0,0
1450,"Central+Coast,US",-33.3117096,151.3120675
1451,"Limestone+Coast,Australia",-32.6683333,152.1383333
1452,"Beotia,Greece",0,0
1453,"Monterrei,Spain",41.9467657,-7.4491474
1454,"Macon-Vergisson,France",46.3080413,4.7138246
1455,"Ischia,Italy",40.72688165,13.90954743
1456,"Muscat+de+Saint-Jean+de+Minervois,France",0,0
1457,"Granite+Belt,Australia",-28.5359421,151.948828
1458,"Collioure,France",42.52505,3.0831554
1459,"Cadillac+Cotes+de+Bordeaux,France",0,0
1460,"Mediterranee,France",46.2349145,6.6554021
1461,"Chorey-les-Beaune,France",47.0478752,4.8666174
1462,"Chianti+Colli+Senesi,Italy",0,0
1463,"Falerio,Italy",40.6619891,14.6983538
1464,"Nagambie+Lakes,Australia",0,0
1465,"Duriense,Portugal",0,0
1466,"Coelemu,Chile",-36.4876004,-72.7023316
1467,"Pageon,Greece",0,0
1468,"Benaco+Bresciano,Italy",45.6414055,10.6118798
1469,"Plaiurile+Drancei,Romania",0,0
1470,"Franschhoek,South+Africa",-33.909167,19.119444
1471,"Chianti+Rufina,Italy",0,0
1472,"Halkidiki,Greece",40.0337881,23.4751986
1473,"Cremant+de+Jura,France",0,0
1474,"Cotes+de+Saint-Mont,France",0,0
1475,"Albemarle+County,US",38.0085107,-78.6086754
1476,"Elqui+Valley,Chile",-33.0414407,-71.644855
1477,"Valtellina,Italy",46.32336235,10.25841367
1478,"Waipara,New+Zealand",-43.1052329,172.7679265
1479,"Montevideo,Uruguay",-34.9059039,-56.1913569
1480,"Cotes-du-Ventoux,France",0,0
1481,"Macon-Charnay,France",46.3098212,4.784542
1482,"Dingac,Croatia",42.9388295,17.33849
1483,"Rivesaltes+Rose,France",42.7683568,2.8709277
1484,"Transylvanian+Plateau,Romania",0,0
1485,"Rose+Valley,Bulgaria",42.6330392,25.3363439
1486,"Vosne-Romanee,France",47.1585795,4.9547623
1487,"Hautes+Cotes+de+Beaune,France",47.1499101,4.8899102
1488,"Florina,Greece",40.779442,21.407594
1489,"Swan+Creek,US",37.099983,-79.159762
1490,"Penisola+Sorrentina,Italy",40.6379314,14.4021601
1491,"Getariako+Txakolina,Spain",0,0
1492,"Massachusetts,US",42.3788774,-72.032366
1493,"Colares,Portugal",38.7991807,-9.446217
1494,"Brindisi,Italy",40.6395295,17.945526
1495,"Cremant+de+Limoux,France",0,0
1496,"Napa,US",38.2971367,-122.2855293
1497,"Falanghina+del+Sannio,Italy",0,0
1498,"Sithonia,Greece",40.0984424,23.8778558
1499,"Sagrantino+di+Montefalco,Italy",0,0
1500,"Cauquenes+Valley,Chile",-35.9671286,-72.315427
1501,"Fleurieu+Peninsula,Australia",-35.5082015,138.4777419
1502,"Vin+de+Pays+d'Imathia,Greece",0,0
1503,"Frankland+River,Australia",-42.99605,146.05494
1504,"Sable+de+Camargue,France",0,0
1505,"Julienas,France",46.2347371,4.7114718
1506,"Lambrusco+dell'Emilia,Italy",0,0
1507,"Alenteo,Portugal",0,0
1508,"Cotes+du+Rhone,France",45.3956194,6.5749874
1509,"Franken,Germany",54.3014601,13.11035685
1510,"Rosso+del+Veronese,Italy",45.6286888,10.8083183
1511,"Turkey,Turkey",38.9597594,34.9249653
1512,"Macon+Chaintre,France",46.279561,4.7786921
1513,"Chianti+Montespertoli,Italy",0,0
1514,"Burgundy,France",47.27808725,4.222486304
1515,"Central+Coast,US",-33.3117096,151.3120675
1516,"Willamette+Valley,US",45.3442868,-122.6670374
1517,"Columbia+Valley,US",34.0007493,-81.0343313
1518,"Trentino,Italy",46.102817,11.1295431
1519,"Oregon+Other,US",45.5625404,-122.6665296
1520,"Primitivo+del+Salento,Italy",0,0
1521,"Cacc'e+Mmitte+di+Lucera,Italy",0,0
1522,"Washington+Other,US",37.751428,-87.139672
1523,"Catalunya,Spain",41.8523094,1.5745043
1524,"Napa,US",38.2971367,-122.2855293
1525,"Chile,Chile",-31.7613365,-71.3187697
1526,"Bolgheri+Superiore,Italy",0,0
1527,"Montsant,Spain",41.117055,1.2110712
1528,"Atlantida,Uruguay",-34.7743888,-55.7605883
1529,"Colline+Novaresi,Italy",0,0
1530,"Sonoma,US",38.5110803,-122.8473388
1531,"Buzet,France",43.7096644,-0.8313243
1532,"Middle+and+South+Dalmatia,Croatia",43.513847,16.451105
1533,"Vino+de+la+Tierra+de+Castello,Spain",0,0
1534,"California-Washington,US",40.0657724,-79.8918436
1535,"Napa,US",38.2971367,-122.2855293
1536,"Alsace,France",48.24917645,7.407469952
1537,"Sonoma,US",38.5110803,-122.8473388
1538,"Graves,France",45.6500048,-0.1060768
1539,"Emilia-Romagna,Italy",44.525696,11.039437
1540,"Bordeaux,France",44.841225,-0.5800364
1541,"Goumenissa,Greece",40.9466441,22.4519413
1542,"Vlootenburg,South+Africa",0,0
1543,"Central+Coast,US",-33.3117096,151.3120675
1544,"Slovenska+Istra,Slovenia",0,0
1545,"Chianti+Classico,Italy",43.3932476,11.3086645
1546,"Beira+Interior,Portugal",38.7009848,-28.2103157
1547,"Rhone+Valley,France",44.61743555,4.751423099
1548,"Lolol+Valley,Chile",-34.727836,-71.6440839
1549,"Romangia,Italy",40.7346008,8.5651511
1550,"Valpolicella+Ripasso+Valpantena+Superiore,Italy",0,0
1551,"Sicilia,Italy",37.587794,14.155048
1552,"Kamptal,Austria",48.38071295,16.5246643
1553,"Napa,US",38.2971367,-122.2855293
1554,"Vino+Nobile+di+Montepulciano,Italy",0,0
1555,"Macon-Cruzille,France",46.506425,4.7968947
1556,"Fronton,France",43.840295,1.390285
1557,"Recioto+della+Valpolicella+Classico,Italy",0,0
1558,"Macon+La+Roche+Vineuse,France",46.3432975,4.7225733
1559,"Monteregio+di+Massa+Marittima,Italy",43.0520442,10.88953898
1560,"Vinho+Espumante,Portugal",0,0
1561,"Amyndeon,Greece",0,0
1562,"Macon-Fuisse,France",46.2798941,4.7441091
1563,"La+Clape,France",42.9686517,2.5484271
1564,"Paestum,Italy",40.4238379,15.0069514
1565,"Yarra+Valley,Australia",-34.82047925,149.5968262
1566,"Valpolicella+Superiore,Italy",0,0
1567,"Rivesaltes,France",42.7683568,2.8709277
1568,"South+Eastern+Australia,Australia",-30.5343665,135.6301212
1569,"Prosecco+del+Veneto,Italy",45.9017014,12.0989141
1570,"Colorado,US",38.7251776,-105.6077167
1571,"Weinviertel,Austria",48.3248019,16.4289809
1572,"Portugal,Portugal",40.033265,-7.8896263
1573,"Hermitage,France",47.7550518,-1.3602204
1574,"Ukraine,Ukraine",49.4871968,31.2718321
1575,"Costers+del+Segre,Spain",0,0
1576,"Elazig,Turkey",38.5824771,39.396179
1577,"Lesbos,Greece",39.2074811,26.1342123
1578,"Nardo,Italy",40.1762608,18.0306371
1579,"Napa,US",38.2971367,-122.2855293
1580,"Ruche+di+Castagnole+Monferrato,Italy",0,0
1581,"Sierra+Foothills,US",33.58458185,-111.8089768
1582,"Lakonia,Greece",36.8114196,22.84027251
1583,"Vin+Doux+Naturel+Rasteau,France",0,0
1584,"Sangiovese+di+Romagna+Superiore,Italy",0,0
1585,"Tokaj,Hungary",48.1235534,21.4113895
1586,"Central+Coast,US",-33.3117096,151.3120675
1587,"Piemonte,Italy",45.060735,7.923549
1588,"Ribera+del+Jucar,Spain",39.19109015,-1.596479305
1589,"Rosso+Piceno+Superiore,Italy",42.9486816,13.7075338
1590,"Murgia,Italy",39.3263729,8.7394162
1591,"Valtenesi,Italy",45.50919,10.38676
1592,"Macon-Vinzelles,France",46.2629798,4.790294788
1593,"Columbia+Valley,US",34.0007493,-81.0343313
1594,"Montescudaio,Italy",43.3262785,10.6269946
1595,"Corton+Vergennes,France",0,0
1596,"Touraine+Amboise,France",47.3813375,1.0175723
1597,"Cotes+de+Forez,France",45.6487994,4.3378697
1598,"North+Coast,US",-23.0053563,-43.3297952
1599,"Martinborough+Terrace,New+Zealand",-41.2183252,175.4594856
1600,"Chambertin+Clos+de+Beze,France",0,0
1601,"Cote+Rotie,France",45.0572975,4.6927444
1602,"Falerno+del+Massico,Italy",0,0
1603,"North+Coast,US",-23.0053563,-43.3297952
1604,"Epomeo,Italy",40.7303238,13.8944287
1605,"Letrinon,Greece",37.672068,21.4367838
1606,"Central+Coast,US",-33.3117096,151.3120675
1607,"Ribeiro,Spain",43.1480413,-7.2973507
1608,"Long+Island,US",36.6626521,-75.9346486
1609,"Cotes+du+Lot,France",0,0
1610,"Rosazzo,Italy",45.9970608,13.4415949
1611,"Washington-Oregon,US",45.5601883,-123.0587907
1612,"Jurancon+Sec,France",43.2871825,-0.3896425
1613,"North+Coast,US",-23.0053563,-43.3297952
1614,"Cote+Chalonnaise,France",46.8161324,4.752091534
1615,"Recas,Romania",45.8017074,21.5092923
1616,"Bardolino+Superiore,Italy",0,0
1617,"Cotes+de+Thongue,France",0,0
1618,"Ramandolo,Italy",46.2216457,13.2583735
1619,"Sonoma,US",38.5110803,-122.8473388
1620,"Vin+de+Pays+des+Coteaux+de+Bessilles,France",0,0
1621,"Vin+de+Pays+des+Collines+de+la+Moure,France",0,0
1622,"La+Mancha,Spain",37.0388525,-4.5302423
1623,"Swartland,South+Africa",-33.29356,18.5993825
1624,"Aloxe-Corton,France",47.0653471,4.8596328
1625,"Coteaux+du+Layon,France",47.3307349,-0.6696313
1626,"Calabria,Italy",39.0565974,16.5249864
1627,"Bullas,Spain",38.0497852,-1.6703391
1628,"Tulum+Valley,Argentina",-31.5031551,-68.5921874
1629,"Northeastern+Italy,Italy",0,0
1630,"Central+Coast,US",-33.3117096,151.3120675
1631,"Napa-Sonoma,US",38.29501795,-122.4759997
1632,"Saint-Croix-du-Mont,France",45.9446111,1.4299017
1633,"Texas,US",31.8160381,-99.5120986
1634,"Moulis,France",42.9604715,1.0924298
1635,"Fleurie,France",46.1920243,4.6981214
1636,"Rosso+Piceno,Italy",42.8598793,13.5703296
1637,"Gattinara,Italy",45.6142424,8.3711382
1638,"North+Coast,US",-23.0053563,-43.3297952
1639,"Kelsey+Bench-Lake+County,US",0,0
1640,"Vermentino+di+Toscana,Italy",0,0
1641,"Kentucky,US",37.5726028,-85.1551411
1642,"North+Coast,US",-23.0053563,-43.3297952
1643,"Campo+de+Borja,Spain",41.78676275,-1.505818961
1644,"Somontano,Spain",42.0883878,0.099404129
1645,"Albana+di+Romagna,Italy",44.0064561,12.6202748
1646,"Wagram,Austria",47.9366799,16.2202861
1647,"Vermentino+di+Gallura,Italy",0,0
1648,"Colli+di+Salerno,Italy",40.2837271,15.5381541
1649,"Collines+Rhodaniennes,France",0,0
1650,"Macon-Lugny,France",46.4738658,4.807747
1651,"Vin+Santo+di+Montepulciano,Italy",0,0
1652,"Finca+Elez,Spain",0,0
1653,"Chateauneuf-du-Pape,France",44.0553336,4.8312888
1654,"Margaux,France",45.046232,-0.672885094
1655,"Salina,Italy",38.55904115,14.83589061
1656,"Bergerac+Rose,France",43.3079868,5.3816721
1657,"Macedonia,Greece",37.9714428,23.7699608
1658,"Central+Coast,US",-33.3117096,151.3120675
1659,"Trentino+Superiore,Italy",46.0069424,10.7896444
1660,"Dalmatian+Coast,Croatia",0,0
1661,"Vin+de+Pays+du+Val+de+Loire,France",0,0
1662,"Vi+de+la+Terra+Illes+Balears,Spain",0,0
1663,"Dealurile+Husilor,Romania",0,0
1664,"Palette,France",44.645317,-0.3177631
1665,"Mendocino/Lake+Counties,US",0,0
1666,"Cape+South+Coast,South+Africa",0,0
1667,"Rosso+di+Cerignola,Italy",41.2628863,15.900476
1668,"Quincy,France",46.9165047,4.5013955
1669,"Morocco,Morocco",31.1728205,-7.3362482
1670,"Vino+de+la+Tierra+Altiplano+de+Sierra+Nevada,Spain",0,0
1671,"Colli+Asolani+Prosecco,Italy",0,0
1672,"Greece,Greece",38.9953683,21.9877132
1673,"New+Zealand,New+Zealand",-41.5000831,172.8344077
1674,"Petit+Chablis,France",47.8133804,3.7692048
1675,"Progreso,Uruguay",-30.4149536,-56.458962
1676,"Hungary,Hungary",47.1817585,19.5060937
1677,"Groenekloof,South+Africa",-29.5495971,30.2941723
1678,"Maury+Sec,France",42.8102692,2.5935825
1679,"Coteaux+de+l'Aubance,France",0,0
1680,"Bordeaux+Blanc,France",44.8919266,-0.502713
1681,"Aconcagua+Valley,Chile",-33.4586836,-70.6527425
1682,"Leyda+Valley,Chile",-33.6121783,-71.4508924
1683,"Soave+Classico,Italy",0,0
1684,"Carnuntum,Austria",48.11096895,16.85670175
1685,"Bairrada,Portugal",39.6462485,-8.2413418
1686,"Finger+Lakes,US",39.6214952,-84.198677
1687,"Victoria,Australia",-36.5986096,144.6780052
1688,"Robertson,South+Africa",-33.802222,19.883611
1689,"Setubal,Portugal",38.51736365,-8.896340729
1690,"Columbia+Valley,US",34.0007493,-81.0343313
1691,"Sonoma,US",38.5110803,-122.8473388
1692,"New+York+Other,US",0,0
1693,"Cabernet+d'Anjou,France",0,0
1694,"Colli+Martani,Italy",0,0
1695,"Gippsland,Australia",-37.87437,146.9114504
1696,"Cachapoal+Valley,Chile",-34.2718634,-70.9938223
1697,"Rosso+di+Montepulciano,Italy",0,0
1698,"Heathcote,Australia",-34.0848266,151.007392
1699,"Pernand-Vergelesses,France",47.078957,4.853803
1700,"Pompeiano,Italy",39.8947332,18.2162707
1701,"McLaren+Vale-Padthaway,Australia",0,0
1702,"Passito+di+Noto,Italy",0,0
1703,"Vin+de+Pays+de+Caux,France",0,0
1704,"Valpolicella+Classico+Superiore+Ripasso,Italy",0,0
1705,"Basilicata,Italy",40.500571,16.081953
1706,"Rutherglen,Australia",-36.039985,146.5197992
1707,"Bourgogne+Hautes+Cotes+de+Nuits,France",0,0
1708,"Valpolicella+Valpantena,Italy",0,0
1709,"North+Coast,US",-23.0053563,-43.3297952
1710,"Arbois,France",46.9032368,5.7727084
1711,"Nuragus+di+Cagliari,Italy",0,0
1712,"Montecarlo,Italy",43.8511862,10.6676214
1713,"Vin+de+Pays+des+Sables+du+Golfe+du+Lion,France",0,0
1714,"Clos+de+Vougeot,France",47.1752753,4.9554317
1715,"Beamsville+Bench,Canada",43.1654577,-79.4751839
1716,"Orvieto+Classico,Italy",0,0
1717,"Rosso+Conero,Italy",43.5698808,13.5513259
1718,"Ribera+del+Queiles,Spain",0,0
1719,"Western+Plains,Australia",-32.4745294,148.8368619
1720,"Cotes+du+Frontonnais,France",0,0
1721,"Ilia,Greece",38.8509694,23.1256502
1722,"Toledo,Spain",39.8560679,-4.0239568
1723,"Coteaux+du+Layon+Beaulieu,France",47.3151609,-0.6004098
1724,"Iowa,US",41.9216734,-93.3122705
1725,"Central+Coast,US",-33.3117096,151.3120675
1726,"Saint-Estephe,France",45.2642784,-0.7706847
1727,"Gavi,Italy",44.687649,8.809353
1728,"Lambrusco+di+Sorbara,Italy",44.753007,11.009671
1729,"Nevada,US",39.5158825,-116.8537227
1730,"Napa,US",38.2971367,-122.2855293
1731,"Alta+Langa,Italy",44.678428,8.2231367
1732,"Sonoma,US",38.5110803,-122.8473388
1733,"Vino+Spumante,Italy",0,0
1734,"Southern+Oregon,US",42.18664255,-122.6968305
1735,"Cotes+du+Roussillon+Villages,France",0,0
1736,"Vesuvio,Italy",40.8214568,14.4258161
1737,"Mittelrhein,Germany",50.3638081,7.5592278
1738,"Vino+da+Tavola+della+Svizzera+Italiana,Switzerland",0,0
1739,"Sonoma,US",38.5110803,-122.8473388
1740,"Central+Coast,US",-33.3117096,151.3120675
1741,"Vino+de+la+Tierra+de+Castilla+y+Leon,Spain",0,0
1742,"Les+Baux+de+Provence,France",43.7436371,4.795125
1743,"Jerusalem+Hills,Israel",0,0
1744,"Mostar,Bosnia+and+Herzegovina",43.3416104,17.8030427
1745,"Vermont,US",44.5990718,-72.5002608
1746,"Dolcetto+di+Dogliani+Superiore,Italy",0,0
1747,"Friuli+Venezia+Giulia,Italy",46.151042,13.055904
1748,"Tavora-Varosa,Portugal",0,0
1749,"Central+Coast,US",-33.3117096,151.3120675
1750,"Mount+Barker,Australia",-35.0641302,138.8586385
1751,"Aglianico+del+Beneventano,Italy",0,0
1752,"Verduno,Italy",44.66614,7.930735
1753,"Chianti,Italy",43.7043073,11.1048413
1754,"Valpolicella+Classico+Superiore,Italy",0,0
1755,"Thrace,Turkey",40.7939323,26.1425009
1756,"Swan+Hill,Australia",-35.36206,143.5126865
1757,"Arcole,Italy",45.3582108,11.2860916
1758,"Oregon,US",43.9792797,-120.737257
1759,"Maipo+Valley,Chile",-33.7328646,-70.7812358
1760,"Galilee,Israel",32.8616632,35.2640128
1761,"Willamette+Valley,US",45.3442868,-122.6670374
1762,"Montravel,France",4.9119511,-52.2591469
1763,"Sudsteiermark,Austria",46.77684255,15.66619679
1764,"Ica,Peru",-14.0634905,-75.7294026
1765,"Omaka+Valley,New+Zealand",-43.4603449,172.5760804
1766,"Maury,France",42.8102692,2.5935825
1767,"Lison-Pramaggiore,Italy",45.7788246,12.7367108
1768,"Moscadello+di+Montalcino,Italy",0,0
1769,"Venezia,Italy",45.4371908,12.3345898
1770,"Bearn,France",48.67681335,2.165424881
1771,"Terras+do+Dao,Portugal",38.9620834,-9.1894827
1772,"Grampians,Australia",-36.718805,142.2209509
1773,"Central+Coast,US",-33.3117096,151.3120675
1774,"Oregon+Other,US",45.5625404,-122.6665296
1775,"Falerio+dei+Colli+Ascolani,Italy",0,0
1776,"Golan+Heights,Israel",33.2120673,35.7877991
1777,"Copertino,Italy",40.2716808,18.0502517
1778,"Collio,Italy",45.8093124,10.3328723
1779,"Central+Valley,US",38,-121.4
1780,"Lisboa,Portugal",38.7077507,-9.1365919
1781,"Central+Coast,US",-33.3117096,151.3120675
1782,"Medrano,Argentina",-33.1811161,-68.614301
1783,"Moulis-en-Medoc,France",45.0564852,-0.7736381
1784,"Eilandia,South+Africa",0,0
1785,"Central+Valley,US",38,-121.4
1786,"Hunter+Valley,Australia",-32.7797064,151.3432779
1787,"Tierra+de+Leon,Spain",41.9533522,-3.4780483
1788,"Grave+del+Friuli,Italy",46.2116398,12.4131488
1789,"Strevi,Italy",44.698146,8.521847
1790,"Goulburn+Valley,Australia",-34.7523871,149.7198009
1791,"Macon-Prisse,France",46.3223895,4.7673832
1792,"Lemnos,Greece",39.9088688,25.14996079
1793,"Bio+Bio+Valley,Chile",-37.3391407,-72.4106825
1794,"South+Coast,US",32.7469891,-117.2516124
1795,"Muscat+de+Rivesaltes,France",0,0
1796,"Jujuy,Argentina",-23.3161458,-65.7595288
1797,"Costa+d'Amalfi,Italy",40.61887125,14.91110315
1798,"North+Coast,US",-23.0053563,-43.3297952
1799,"Nashik,India",20.216667,74.083333
1800,"Vin+de+Pays+de+l'Atlantique,France",0,0
